Index,Time,field.velocity_x,field.velocity_y,field.velocity_z,field.dvl_roll,field.dvl_pitch,field.dvl_yaw,field.depth_data,field.depth_rate,field.roll_data,field.pitch_data,field.yaw_data,field.yaw_rate_data,field.lat,field.long,field.gps_status,field.navigasi_north,field.navigasi_east,field.navigasi_depth,field.voltage,field.current,field.humidity,field.temperature,field.pressure,field.surge,field.des_mm,field.cur_mm,field.roll_sp,field.servo_position,field.yaw_sp,field.internal_volume,field.bow_percentage
1.6971E+18,0,-0.042599998,0.0051,0.010100001,4.849999905,7.130000114,343.7999878,-0.138956528,0.002539604,4.427745796,4.056935098,0.863999105,-0.081027604,-6.886671424,107.6107285,-1,-0.305901287,9.40337589,-0.056838615,21.23048973,1606,61.40000153,35.20000076,-1.6015625,0.042904194,114.6305586,114,0,0,0,142.5,-0.045747604
1.6971E+18,0.100089856,-0.085000001,-0.0089,0.019100001,5.039999962,7.269999981,343.7999878,-0.141002159,0.001321531,4.429991078,4.035345878,0.868971495,0.019613061,-6.886671441,107.6107283,-1,-0.305901287,9.40337589,-0.056838615,21.23048973,1606,61.40000153,35.20000076,-1.6015625,0.085464672,112.4018001,114,0,0,0,142.5,-0.044651929
1.6971E+18,0.20057984,-0.085000001,-0.0089,0.019100001,5.039999962,7.269999981,343.7999878,-0.138956528,-0.000973193,4.452271351,3.995038427,0.875440936,0.141016298,-6.88667146,107.6107282,-1,-0.305901287,9.40337589,-0.056838615,21.23048973,1606,61.40000153,35.20000076,-1.6015625,0.085464672,112.4018001,113,0,0,0,142.5,-0.046173867
1.6971E+18,0.300249856,-0.085000001,-0.0089,0.019100001,5.039999962,7.269999981,343.7999878,-0.141002159,-0.000201089,4.458103448,3.974822344,0.874905028,0.114299729,-6.886671385,107.6107287,-1,-0.305901287,9.40337589,-0.056838615,21.23048973,1606,61.40000153,35.20000076,-1.6015625,0.085464672,112.4018001,113,0,0,0,142.5,-0.04485343
1.6971E+18,0.400239872,-0.085000001,-0.0089,0.019100001,5.039999962,7.269999981,343.7999878,-0.142024975,-0.002484773,4.463602403,3.945188205,0.880110137,-0.01308354,-6.886671402,107.6107286,-1,-0.305901287,9.40337589,-0.056838615,21.23048973,1606,61.40000153,35.20000076,-1.6015625,0.085464672,112.4018001,113,0,0,0,142.5,-0.044419292
1.6971E+18,0.500019968,-0.085000001,-0.0089,0.019100001,5.039999962,7.269999981,343.7999878,-0.138956528,-0.000998137,4.459216479,3.916729028,0.892836695,-0.098430371,-6.88667142,107.6107285,-1,-0.305901287,9.40337589,-0.056838615,21.23048973,1606,61.40000153,35.20000076,-1.6015625,0.085464672,112.4018001,113,0,0,0,142.5,-0.048461027
1.6971E+18,0.600559872,-0.085000001,-0.0089,0.019100001,5.039999962,7.269999981,343.7999878,-0.142024975,-0.002653783,4.453312629,3.902663661,0.905683537,-0.098262586,-6.886671437,107.6107284,-1,-0.305901287,9.40337589,-0.056838615,21.23048973,1606,61.40000153,35.20000076,-1.6015625,0.085464672,111.6941134,113,0,0,0,142.5,-0.049818307
1.6971E+18,0.700780032,-0.085000001,-0.0089,0.019100001,5.039999962,7.269999981,343.7999878,-0.139979343,-0.001524133,4.439644041,3.899713658,0.92133271,-0.098103076,-6.886671454,107.6107283,-1,-0.305901287,9.40337589,-0.056838615,21.09709167,3326,61.40000153,35.20000076,-1.6015625,0.085464672,111.6941134,112,0,0,0,147.5,-0.051743276
1.6971E+18,0.800179968,-0.085000001,-0.0089,0.019100001,5.039999962,7.269999981,343.7999878,-0.138956528,0.001650589,4.42918129,3.900209098,0.89454308,-0.134631477,-6.886671471,107.6107281,-1,-0.185267838,9.496568197,-0.004313632,21.09709167,3326,61.40000153,35.20000076,-1.6015625,0.085464672,111.6941134,112,0,0,0,147.5,-0.03452976
1.6971E+18,0.90016,-0.085000001,-0.0089,0.019100001,5.039999962,7.269999981,343.7999878,-0.141002159,0.000758321,4.432966707,3.910152491,0.89908415,0.024846048,-6.886671488,107.610728,-1,-0.185267838,9.496568197,-0.004313632,21.09709167,3326,61.40000153,35.20000076,-1.6015625,0.085464672,111.6941134,112,0,0,0,147.5,-0.04879564
1.6971E+18,1.000109824,-0.085000001,-0.0089,0.019100001,5.039999962,7.269999981,343.7999878,-0.143047671,-0.002232646,4.442806314,3.925272376,0.898632701,0.119076079,-6.886671506,107.6107279,-1,-0.185267838,9.496568197,-0.004313632,21.09709167,3326,61.40000153,35.20000076,-2.578125,0.085464672,111.6941134,112,0,0,0,147.5,-0.044751056
1.6971E+18,1.100559872,-0.083300002,-0.0057,-0.0042,5.300000191,7.429999828,7.599999905,-0.142024975,-0.002232646,4.448292457,3.9348412,0.901120578,0.012981643,-6.886671524,107.6107278,-1,-0.185267838,9.496568197,-0.004313632,21.09709167,3326,61.40000153,35.20000076,-2.578125,0.083494792,108.9243044,112,0,0,0,147.5,-0.043788884
1.6971E+18,1.207959808,-0.083300002,-0.0057,-0.0042,5.300000191,7.429999828,7.599999905,-0.142024975,-0.000719491,4.451951878,3.947501824,0.910496031,-0.000652845,-6.886671544,107.6107276,-1,-0.185267838,9.496568197,-0.004313632,21.09709167,3326,61.40000153,35.20000076,-2.578125,0.083494792,108.9243044,112,0,0,0,155,-0.0481718
1.6971E+18,1.300169984,-0.083300002,-0.0057,-0.0042,5.300000191,7.429999828,7.599999905,-0.142024975,-0.002857883,4.455964514,3.948531143,0.927817421,-0.003663319,-6.886671565,107.6107275,-1,-0.185267838,9.496568197,-0.004313632,21.09709167,3326,61.40000153,35.20000076,-2.578125,0.083494792,108.9243044,109,0,0,0,155,-0.056087527
1.6971E+18,1.400189952,-0.083300002,-0.0057,-0.0042,5.300000191,7.429999828,7.599999905,-0.142024975,-0.002058746,4.451988182,3.932880795,0.952922342,-0.057462157,-6.886671588,107.6107274,-1,-0.185267838,9.496568197,-0.004313632,21.09709167,3326,61.40000153,35.20000076,-2.578125,0.083494792,108.9243044,109,0,0,0,155,-0.057688087
1.6971E+18,1.500169984,-0.083300002,-0.0057,-0.0042,5.300000191,7.429999828,7.599999905,-0.137933831,0.000117243,4.455464803,3.903578516,0.978330399,0.012373078,-6.886671614,107.6107273,-1,-0.185267838,9.496568197,-0.004313632,21.09709167,3326,61.40000153,35.20000076,-2.578125,0.083494792,108.9243044,109,0,0,0,155,-0.053009506
1.6971E+18,1.600620032,-0.083300002,-0.0057,-0.0042,5.300000191,7.429999828,7.599999905,-0.138956528,-0.002593556,4.463674584,3.860972822,0.99685857,0.081015892,-6.886671641,107.6107271,-1,-0.185267838,9.496568197,-0.004313632,21.09709167,3326,61.40000153,35.20000076,-2.578125,0.083494792,108.4593899,109,0,0,0,155,-0.058446482
1.6971E+18,1.700229888,-0.083300002,-0.0057,-0.0042,5.300000191,7.429999828,7.599999905,-0.137933831,-3.19702E-05,4.47740681,3.805463054,1.010315849,0.161485453,-6.88667167,107.610727,-1,-0.185267838,9.496568197,-0.004313632,21.10083008,3320,61.40000153,35.20000076,-2.578125,0.083494792,108.4593899,109,0,0,0,165,-0.056812391
1.6971E+18,1.799990016,-0.083300002,-0.0057,-0.0042,5.300000191,7.429999828,7.599999905,-0.138956528,-0.00202138,4.487624404,3.744245477,1.014026416,0.044145125,-6.886671572,107.6107293,0,-0.24683293,9.506102311,0.000391889,21.10083008,3320,61.40000153,35.20000076,-2.578125,0.083494792,108.4593899,109,0,0,0,165,-0.054252312
1.6971E+18,1.905689856,-0.083300002,-0.0057,-0.0042,5.300000191,7.429999828,7.599999905,-0.145093303,-0.004987403,4.486478486,3.679749882,1.011680764,-0.032615614,-6.886671462,107.6107307,0,-0.24683293,9.506102311,0.000391889,21.10083008,3320,61.40000153,35.20000076,-2.578125,0.083494792,108.4593899,109,0,0,0,165,-0.050038967
1.6971E+18,2.000389888,-0.083300002,-0.0057,-0.0042,5.300000191,7.429999828,7.599999905,-0.142024975,-0.004987403,4.558541071,3.610443395,0.999492089,-0.106308746,-6.886671015,107.6107314,0,-0.24683293,9.506102311,0.000391889,21.10083008,3320,61.40000153,35.20000076,-2.08984375,0.083494792,108.4593899,109,0,0,0,165,-0.049763985
1.6971E+18,2.100009984,0.0091,0.0025,0.0093,4.980000019,7.070000172,7.300000191,-0.146116118,-0.005794448,4.566940912,3.564315166,0.992203677,-0.103363448,-6.886671039,107.6107316,0,-0.24683293,9.506102311,0.000391889,21.10083008,3320,61.29999924,35.10000229,-2.08984375,0.009437161,108.6332694,109,0,0,0,165,-0.042548288
1.6971E+18,2.20016,0.0091,0.0025,0.0093,4.980000019,7.070000172,7.300000191,-0.143047671,-0.004139408,4.572882774,3.526222032,0.992692497,-0.088263856,-6.88667083,107.6107319,0,-0.24683293,9.506102311,0.000391889,21.10083008,3320,61.29999924,35.10000229,-2.08984375,0.009437161,108.6332694,109,0,0,0,172.5,-0.04860634
1.6971E+18,2.300029952,0.0091,0.0025,0.0093,4.980000019,7.070000172,7.300000191,-0.141002159,-0.002060982,4.593308137,3.501747515,0.998308052,0.043310058,-6.886670885,107.6107324,0,-0.24683293,9.506102311,0.000391889,21.10083008,3320,61.29999924,35.10000229,-2.08984375,0.009437161,108.6332694,109,0,0,0,172.5,-0.05136526
1.6971E+18,2.400199936,0.0091,0.0025,0.0093,4.980000019,7.070000172,7.300000191,-0.147138815,-0.004569241,4.614832437,3.489328204,1.009239228,0.129118667,-6.886670796,107.6107323,0,-0.24683293,9.506102311,0.000391889,21.10083008,3320,61.29999924,35.10000229,-2.08984375,0.009437161,108.6332694,109,0,0,0,172.5,-0.054228093
1.6971E+18,2.50020992,0.0091,0.0025,0.0093,4.980000019,7.070000172,7.300000191,-0.144070487,-0.002973343,4.634703421,3.48561689,1.02737126,0.116120271,-6.886670908,107.6107325,0,-0.24683293,9.506102311,0.000391889,21.10083008,3320,61.29999924,35.10000229,-2.08984375,0.009437161,108.6332694,109,0,0,0,172.5,-0.056951854
1.6971E+18,2.604679936,0.0091,0.0025,0.0093,4.980000019,7.070000172,7.300000191,-0.144070487,-0.002857029,4.661709592,3.475965208,1.046979681,0.119775181,-6.886670653,107.6107324,0,-0.24683293,9.506102311,0.000391889,21.10083008,3320,61.29999924,35.10000229,-2.08984375,0.009437161,106.6401813,109,0,0,0,172.5,-0.059924159
1.6971E+18,2.699990016,0.0091,0.0025,0.0093,4.980000019,7.070000172,7.300000191,-0.143047671,-0.004119986,4.683359034,3.459898648,1.06574735,0.144525352,-6.886670707,107.6107324,0,-0.24683293,9.506102311,0.000391889,21.08128929,3426,61.29999924,35.10000229,-2.08984375,0.009437161,106.6401813,107,0,0,0,182.5,-0.060335763
1.6971E+18,2.800219904,0.0091,0.0025,0.0093,4.980000019,7.070000172,7.300000191,-0.146116118,-0.004849269,4.700315891,3.437487468,1.083935973,0.142858048,-6.886670463,107.6107323,0,-0.267448128,9.464683104,-0.051507654,21.08128929,3426,61.29999924,35.10000229,-2.08984375,0.009437161,106.6401813,107,0,0,0,182.5,-0.060793206
1.6971E+18,2.900109824,0.0091,0.0025,0.0093,4.980000019,7.070000172,7.300000191,-0.141002159,-0.002114851,4.720067285,3.386602162,1.10691755,0.113497642,-6.886670348,107.6107321,0,-0.267448128,9.464683104,-0.051507654,21.08128929,3426,61.29999924,35.10000229,-2.08984375,0.009437161,106.6401813,107,0,0,0,182.5,-0.061010994
1.6971E+18,3.00016,0.0091,0.0025,0.0093,4.980000019,7.070000172,7.300000191,-0.144070487,-0.002979267,4.724896543,3.358262787,1.100920805,0.133808542,-6.886670138,107.6107319,0,-0.267448128,9.464683104,-0.051507654,21.08128929,3426,61.29999924,35.10000229,-1.2109375,0.009437161,106.6401813,107,0,0,0,182.5,-0.061559249
1.6971E+18,3.10032,-0.016000001,0.0023,0.004,5.039999962,7.130000114,7.400000095,-0.139979343,-0.001581494,4.742600403,3.307790917,1.116263318,0.143911285,-6.886670055,107.6107317,0,-0.267448128,9.464683104,-0.051507654,21.08128929,3426,61.29999924,35.10000229,-1.2109375,0.016164468,106.52241,107,0,0,0,182.5,-0.055672277
1.6971E+18,3.200279808,-0.016000001,0.0023,0.004,5.039999962,7.130000114,7.400000095,-0.144070487,-0.004197382,4.745766948,3.267155877,1.132438042,0.084328533,-6.886669908,107.6107315,0,-0.267448128,9.464683104,-0.051507654,21.08128929,3426,61.29999924,35.10000229,-1.2109375,0.016164468,106.52241,107,0,0,0,190,-0.062267344
1.6971E+18,3.300019968,-0.016000001,0.0023,0.004,5.039999962,7.130000114,7.400000095,-0.145093303,-0.004726692,4.743915882,3.227846139,1.1561111,0.062813368,-6.886669753,107.6107314,0,-0.267448128,9.464683104,-0.051507654,21.08128929,3426,61.29999924,35.10000229,-1.2109375,0.016164468,106.52241,107,0,0,0,190,-0.063817538
1.6971E+18,3.400129792,-0.016000001,0.0023,0.004,5.039999962,7.130000114,7.400000095,-0.141002159,-0.004797221,4.73489973,3.204461804,1.182467861,-0.037198242,-6.886669744,107.6107312,0,-0.267448128,9.464683104,-0.051507654,21.08128929,3426,61.29999924,35.10000229,-1.2109375,0.016164468,106.52241,107,0,0,0,190,-0.069633469
1.6971E+18,3.500189952,-0.016000001,0.0023,0.004,5.039999962,7.130000114,7.400000095,-0.142024975,-0.004761635,4.734297941,3.195647672,1.19856923,0.040363742,-6.886669769,107.610731,0,-0.267448128,9.464683104,-0.051507654,21.08128929,3426,61.29999924,35.10000229,-1.2109375,0.016164468,106.52241,107,0,0,0,190,-0.068250686
1.6971E+18,3.600019968,-0.016000001,0.0023,0.004,5.039999962,7.130000114,7.400000095,-0.145093303,-0.006057679,4.752772297,3.199741885,1.203115531,0.214551015,-6.886669774,107.6107309,0,-0.267448128,9.464683104,-0.051507654,21.08128929,3426,61.29999924,35.10000229,-1.2109375,0.016164468,104.3487215,107,0,0,0,190,-0.065192834
1.6971E+18,3.700140032,-0.016000001,0.0023,0.004,5.039999962,7.130000114,7.400000095,-0.145093303,-0.005682028,4.770440708,3.207430172,1.200705173,0.129994135,-6.886669759,107.6107307,0,-0.267448128,9.464683104,-0.051507654,21.08919144,3440,61.29999924,35.10000229,-1.2109375,0.016164468,104.3487215,105,0,0,0,200,-0.059513494
1.6971E+18,3.800129792,-0.016000001,0.0023,0.004,5.039999962,7.130000114,7.400000095,-0.141002159,-6.03701E-06,4.777795855,3.208532953,1.200378333,0.040811603,-6.886669704,107.6107306,0,0.060509092,0.096677397,-0.054829438,21.08919144,3440,61.29999924,35.10000229,-1.2109375,0.016164468,104.3487215,105,0,0,0,200,-0.059676807
1.6971E+18,3.900169984,-0.016000001,0.0023,0.004,5.039999962,7.130000114,7.400000095,-0.139979343,-0.000732088,4.771973155,3.216070687,1.198052221,-0.073129289,-6.886669647,107.6107304,0,0.060509092,0.096677397,-0.054829438,21.08919144,3440,61.29999924,35.10000229,-1.2109375,0.016164468,104.3487215,105,0,0,0,200,-0.058605406
1.6971E+18,4.000189952,-0.016000001,0.0023,0.004,5.039999962,7.130000114,7.400000095,-0.138956528,-0.000732088,4.759361647,3.213412395,1.173007842,-0.112964657,-6.886669662,107.6107303,0,0.060509092,0.096677397,-0.054829438,21.08919144,3440,61.29999924,35.10000229,-1.30859375,0.016164468,104.3487215,105,0,0,0,200,-0.060132664
1.6971E+18,4.107899904,-0.112999998,0.008,-0.023600001,5.440000057,6.429999828,7.800000191,-0.141002159,-0.000444819,4.737178754,3.194022117,1.184235855,-0.205438632,-6.886669609,107.6107301,0,0.060509092,0.096677397,-0.054829438,21.08919144,3440,61.29999924,35.10000229,-1.30859375,0.11328283,102.7616363,105,0,0,0,200,-0.053770538
1.6971E+18,4.200229888,-0.112999998,0.008,-0.023600001,5.440000057,6.429999828,7.800000191,-0.144070487,-0.003126975,4.732088109,3.171779642,1.202139387,-0.008068766,-6.886669571,107.61073,0,0.060509092,0.096677397,-0.054829438,21.08919144,3440,61.29999924,35.10000229,-1.30859375,0.11328283,102.7616363,103,0,0,0,207.5,-0.067268379
1.6971E+18,4.300119808,-0.112999998,0.008,-0.023600001,5.440000057,6.429999828,7.800000191,-0.138956528,-0.000519241,4.733883224,3.14771365,1.219542567,0.00230431,-6.88666943,107.6107298,0,0.060509092,0.096677397,-0.054829438,21.08919144,3440,61.29999924,35.10000229,-1.30859375,0.11328283,102.7616363,103,0,0,0,207.5,-0.063306078
1.6971E+18,4.400169984,-0.112999998,0.008,-0.023600001,5.440000057,6.429999828,7.800000191,-0.144070487,-0.001689974,4.737041653,3.12156318,1.240649694,0.084797045,-6.8866694,107.6107296,0,0.060509092,0.096677397,-0.054829438,21.08919144,3440,61.29999924,35.10000229,-1.30859375,0.11328283,102.7616363,103,0,0,0,207.5,-0.069067925
1.6971E+18,4.500189952,-0.112999998,0.008,-0.023600001,5.440000057,6.429999828,7.800000191,-0.144070487,-0.001642847,4.734019043,3.113162698,1.257375167,0.014768997,-6.886669328,107.6107295,0,0.060509092,0.096677397,-0.054829438,21.08919144,3440,61.29999924,35.10000229,-1.30859375,0.11328283,102.7616363,103,0,0,0,207.5,-0.071564309
1.6971E+18,4.600150016,-0.112999998,0.008,-0.023600001,5.440000057,6.429999828,7.800000191,-0.142024975,-0.001073423,4.730489461,3.118029327,1.261881108,-0.025920654,-6.886669303,107.6107293,0,0.060509092,0.096677397,-0.054829438,21.08919144,3440,61.29999924,35.10000229,-1.30859375,0.11328283,100.3953929,103,0,0,0,207.5,-0.067479342
1.6971E+18,4.702619904,-0.112999998,0.008,-0.023600001,5.440000057,6.429999828,7.800000191,-0.139979343,9.89407E-05,4.718818008,3.140652564,1.256560147,-0.06166687,-6.886669307,107.6107292,0,0.060509092,0.096677397,-0.054829438,21.09709167,3452,61.29999924,35.10000229,-1.30859375,0.11328283,100.3953929,101,0,0,0,217.5,-0.060699623
1.6971E+18,4.800310016,-0.112999998,0.008,-0.023600001,5.440000057,6.429999828,7.800000191,-0.137933831,0.00298656,4.70323258,3.181730083,1.248161374,-0.162125334,-6.886669317,107.6107291,0,0.109674861,-0.055773869,-0.084539172,21.09709167,3452,61.29999924,35.10000229,-1.30859375,0.11328283,100.3953929,101,0,0,0,217.5,-0.060899749
1.6971E+18,4.90425984,-0.112999998,0.008,-0.023600001,5.440000057,6.429999828,7.800000191,-0.142024975,0.000376278,4.690051316,3.229632926,1.237524792,-0.163727465,-6.886669309,107.610729,0,0.109674861,-0.055773869,-0.084539172,21.09709167,3452,61.29999924,35.10000229,-1.30859375,0.11328283,100.3953929,101,0,0,0,217.5,-0.058256276
1.6971E+18,5.00025984,-0.112999998,0.008,-0.023600001,5.440000057,6.429999828,7.800000191,-0.136911016,0.00311246,4.673618515,3.270896235,1.201031053,-0.158450657,-6.886669289,107.6107289,0,0.109674861,-0.055773869,-0.084539172,21.09709167,3452,61.29999924,35.10000229,-1.69921875,0.11328283,100.3953929,101,0,0,0,217.5,-0.045146003
1.6971E+18,5.101869824,0.0049,-0.0099,-0.0011,4.849999905,6.309999943,7.400000095,-0.137933831,0.000803961,4.654096475,3.296144663,1.204171651,-0.197183111,-6.886669239,107.6107287,0,0.109674861,-0.055773869,-0.084539172,21.09709167,3452,61.40000153,35.20000076,-1.69921875,0.011046266,97.01513357,101,0,0,0,217.5,-0.058810133
1.6971E+18,5.200039936,0.0049,-0.0099,-0.0011,4.849999905,6.309999943,7.400000095,-0.139979343,0.002897757,4.630410605,3.301604752,1.226362232,-0.113936932,-6.886669184,107.6107286,0,0.109674861,-0.055773869,-0.084539172,21.09709167,3452,61.40000153,35.20000076,-1.69921875,0.011046266,97.01513357,101,0,0,0,227.5,-0.064264849
1.6971E+18,5.30020992,0.0049,-0.0099,-0.0011,4.849999905,6.309999943,7.400000095,-0.146116118,-0.002262438,4.62315839,3.298599653,1.236855735,-0.159412253,-6.886669126,107.6107285,0,0.109674861,-0.055773869,-0.084539172,21.09709167,3452,61.40000153,35.20000076,-1.69921875,0.011046266,97.01513357,98,0,0,0,227.5,-0.067479163
1.6971E+18,5.400269824,0.0049,-0.0099,-0.0011,4.849999905,6.309999943,7.400000095,-0.137933831,0.00186957,4.608470306,3.27117855,1.271221004,-0.086246721,-6.886669083,107.6107283,0,0.109674861,-0.055773869,-0.084539172,21.09709167,3452,61.40000153,35.20000076,-1.69921875,0.011046266,97.01513357,98,0,0,0,227.5,-0.071721993
1.6971E+18,5.50020992,0.0049,-0.0099,-0.0011,4.849999905,6.309999943,7.400000095,-0.147138815,-0.00227465,4.601085262,3.26061906,1.278918901,-0.158775055,-6.886668978,107.6107282,0,0.109674861,-0.055773869,-0.084539172,21.09709167,3452,61.40000153,35.20000076,-1.69921875,0.011046266,97.01513357,98,0,0,0,227.5,-0.072256662
1.6971E+18,5.600150016,0.0049,-0.0099,-0.0011,4.849999905,6.309999943,7.400000095,-0.137933831,0.00391641,4.586793103,3.239060805,1.297848655,-0.150865768,-6.886668945,107.610728,0,0.109674861,-0.055773869,-0.084539172,21.09709167,3452,61.40000153,35.20000076,-1.69921875,0.011046266,96.39742895,98,0,0,0,227.5,-0.072598517
1.6971E+18,5.70020992,0.0049,-0.0099,-0.0011,4.849999905,6.309999943,7.400000095,-0.139979343,0.002643067,4.568387511,3.220177285,1.310208812,-0.182232011,-6.886668884,107.6107279,0,0.109674861,-0.055773869,-0.084539172,21.09704018,3274,61.40000153,35.20000076,-1.69921875,0.011046266,96.39742895,97,0,0,0,235,-0.072132088
1.6971E+18,5.800189952,0.0049,-0.0099,-0.0011,4.849999905,6.309999943,7.400000095,-0.1358882,0.002561007,4.545382016,3.209300244,1.315997237,-0.159906599,-6.886668836,107.6107278,0,0.150948528,-0.24568336,-0.064079489,21.09704018,3274,61.40000153,35.20000076,-1.69921875,0.011046266,96.39742895,97,0,0,0,235,-0.069307134
1.6971E+18,5.907399936,0.0049,-0.0099,-0.0011,4.849999905,6.309999943,7.400000095,-0.134865384,0.002533525,4.521252813,3.210483534,1.316252965,-0.14893119,-6.886668831,107.6107277,0,0.150948528,-0.24568336,-0.064079489,21.09704018,3274,61.40000153,35.20000076,-1.69921875,0.011046266,96.39742895,97,0,0,0,235,-0.066772647
1.6971E+18,6.00004992,0.0049,-0.0099,-0.0011,4.849999905,6.309999943,7.400000095,-0.141002159,0.000128532,4.49963754,3.222050133,1.278897439,-0.242216714,-6.886668801,107.6107275,0,0.150948528,-0.24568336,-0.064079489,21.09704018,3274,61.40000153,35.20000076,-2.48046875,0.011046266,96.39742895,97,0,0,0,235,-0.049148276
1.6971E+18,6.103469824,-0.0165,0.0039,0.0062,5.010000229,6.320000172,7.5,-0.132819872,0.006173758,4.48221215,3.233015585,1.281425037,-0.153506268,-6.886668774,107.6107274,0,0.150948528,-0.24568336,-0.064079489,21.09704018,3274,61.40000153,35.20000076,-2.48046875,0.016954645,94.10888555,97,0,0,0,235,-0.063410066
1.6971E+18,6.201399808,-0.0165,0.0039,0.0062,5.010000229,6.320000172,7.5,-0.138956528,0.002875965,4.470074727,3.244168962,1.284547696,-0.10407974,-6.886668723,107.6107273,0,0.150948528,-0.24568336,-0.064079489,21.09704018,3274,61.40000153,35.20000076,-2.48046875,0.016954645,94.10888555,95,0,0,0,245,-0.066023052
1.6971E+18,6.300039936,-0.0165,0.0039,0.0062,5.010000229,6.320000172,7.5,-0.132819872,0.006494459,4.456621826,3.246405702,1.287954593,-0.112385238,-6.88666869,107.6107272,0,0.150948528,-0.24568336,-0.064079489,21.09704018,3274,61.40000153,35.20000076,-2.48046875,0.016954645,94.10888555,95,0,0,0,245,-0.065760486
1.6971E+18,6.400059904,-0.0165,0.0039,0.0062,5.010000229,6.320000172,7.5,-0.128728728,0.008650914,4.440668662,3.242460975,1.289975859,-0.167914439,-6.886668658,107.6107271,0,0.150948528,-0.24568336,-0.064079489,21.09704018,3274,61.40000153,35.20000076,-2.48046875,0.016954645,94.10888555,95,0,0,0,245,-0.065307297
1.6971E+18,6.503589888,-0.0165,0.0039,0.0062,5.010000229,6.320000172,7.5,-0.133842688,0.004739203,4.433224251,3.2105933,1.293601433,-0.070192059,-6.886668629,107.610727,0,0.150948528,-0.24568336,-0.064079489,21.09704018,3274,61.40000153,35.20000076,-2.48046875,0.016954645,94.10888555,95,0,0,0,245,-0.066130303
1.6971E+18,6.600029952,-0.0165,0.0039,0.0062,5.010000229,6.320000172,7.5,-0.127705913,0.007424681,4.43130314,3.176037436,1.292305921,-0.08507878,-6.886668581,107.6107269,0,0.150948528,-0.24568336,-0.064079489,21.09704018,3274,61.40000153,35.20000076,-2.48046875,0.016954645,94.19376908,95,0,0,0,245,-0.064097092
1.6971E+18,6.70009984,-0.0165,0.0039,0.0062,5.010000229,6.320000172,7.5,-0.13077424,0.003505384,4.426865536,3.124620386,1.299639499,-0.033864,-6.886668508,107.6107268,0,0.150948528,-0.24568336,-0.064079489,21.08099937,3286,61.40000153,35.20000076,-2.48046875,0.016954645,94.19376908,95,0,0,0,255,-0.06791541
1.6971E+18,6.800179968,-0.0165,0.0039,0.0062,5.010000229,6.320000172,7.5,-0.129751544,0.005945251,4.418644224,3.058882561,1.31335902,-0.081754668,-6.886668456,107.6107267,0,0.203425461,-0.395832901,-0.065902889,21.08099937,3286,61.40000153,35.20000076,-2.48046875,0.016954645,94.19376908,95,0,0,0,255,-0.071155757
1.6971E+18,6.900199936,-0.0165,0.0039,0.0062,5.010000229,6.320000172,7.5,-0.127705913,0.006225158,4.416843556,2.98968947,1.286583164,-0.041888254,-6.886668425,107.6107266,0,0.203425461,-0.395832901,-0.065902889,21.08099937,3286,61.40000153,35.20000076,-2.48046875,0.016954645,94.19376908,95,0,0,0,255,-0.06824334
1.6971E+18,7.000089856,-0.0165,0.0039,0.0062,5.010000229,6.320000172,7.5,-0.121569257,0.006270257,4.407223053,2.926873458,1.300351587,-0.091253153,-6.886668383,107.6107265,0,0.203425461,-0.395832901,-0.065902889,21.08099937,3286,61.40000153,35.20000076,-1.796875,0.016954645,94.19376908,95,0,0,0,255,-0.053349569
1.6971E+18,7.101689856,-0.050999999,-0.0013,0.009699999,4.940000057,6.179999828,7.400000095,-0.121569257,0.007715273,4.401079599,2.865336195,1.31222741,-0.013741002,-6.886668339,107.6107264,0,0.203425461,-0.395832901,-0.065902889,21.08099937,3286,61.40000153,35.20000076,-1.796875,0.051016565,95.64516288,95,0,0,0,255,-0.07113561
1.6971E+18,7.200300032,-0.050999999,-0.0013,0.009699999,4.940000057,6.179999828,7.400000095,-0.119523625,0.00816348,4.398578481,2.795053563,1.31460424,0.058498891,-6.886668322,107.6107263,0,0.203425461,-0.395832901,-0.065902889,21.08099937,3286,61.40000153,35.20000076,-1.796875,0.051016565,95.64516288,95,0,0,0,265,-0.068018883
1.6971E+18,7.300039936,-0.050999999,-0.0013,0.009699999,4.940000057,6.179999828,7.400000095,-0.118500929,0.011552365,4.394765303,2.774659592,1.31564744,-0.020735751,-6.886668308,107.6107262,0,0.203425461,-0.395832901,-0.065902889,21.08099937,3286,61.40000153,35.20000076,-1.796875,0.051016565,95.64516288,95,0,0,0,265,-0.066862248
1.6971E+18,7.402319872,-0.050999999,-0.0013,0.009699999,4.940000057,6.179999828,7.400000095,-0.118500929,0.007407626,4.395092464,2.728687469,1.307704385,-0.01068065,-6.886668298,107.6107261,0,0.203425461,-0.395832901,-0.065902889,21.08099937,3286,61.40000153,35.20000076,-1.796875,0.051016565,95.64516288,95,0,0,0,265,-0.064739779
1.6971E+18,7.500229888,-0.050999999,-0.0013,0.009699999,4.940000057,6.179999828,7.400000095,-0.121569257,0.006151983,4.397999756,2.677501695,1.301174402,0.056416909,-6.886668271,107.610726,0,0.203425461,-0.395832901,-0.065902889,21.08099937,3286,61.40000153,35.20000076,-1.796875,0.051016565,95.64516288,95,0,0,0,265,-0.062298141
1.6971E+18,7.602639872,-0.050999999,-0.0013,0.009699999,4.940000057,6.179999828,7.400000095,-0.119523625,0.0066378,4.392333803,2.616218558,1.291233678,-0.048456373,-6.886668239,107.6107259,0,0.203425461,-0.395832901,-0.065902889,21.08099937,3286,61.40000153,35.20000076,-1.796875,0.051016565,95.32301725,95,0,0,0,265,-0.061414279
1.6971E+18,7.700269824,-0.050999999,-0.0013,0.009699999,4.940000057,6.179999828,7.400000095,-0.116455297,0.007336011,4.391996392,2.53462986,1.276949741,-0.018737117,-6.886668193,107.6107258,0,0.203425461,-0.395832901,-0.065902889,21.1009407,3274,61.40000153,35.20000076,-1.796875,0.051016565,95.32301725,95,0,0,0,272.5,-0.059625681
1.6971E+18,7.800239872,-0.050999999,-0.0013,0.009699999,4.940000057,6.179999828,7.400000095,-0.11338697,0.007750658,4.395514442,2.441952491,1.264279827,0.054155897,-6.886668163,107.6107257,0,0.275595997,-0.534903303,-0.046635232,21.1009407,3274,61.40000153,35.20000076,-1.796875,0.051016565,95.32301725,95,0,0,0,272.5,-0.057537343
1.6971E+18,7.900219904,-0.050999999,-0.0013,0.009699999,4.940000057,6.179999828,7.400000095,-0.109295826,0.012621486,4.401379852,2.341366664,1.208954034,0.128053898,-6.886668074,107.6107256,0,0.275595997,-0.534903303,-0.046635232,21.1009407,3274,61.40000153,35.20000076,-1.796875,0.051016565,95.32301725,95,0,0,0,272.5,-0.058725078
1.6971E+18,8.000239872,-0.050999999,-0.0013,0.009699999,4.940000057,6.179999828,7.400000095,-0.110318642,0.007239719,4.396696237,2.227765502,1.200131467,-0.030931492,-6.886667989,107.6107255,0,0.275595997,-0.534903303,-0.046635232,21.1009407,3274,61.40000153,35.20000076,-1.11328125,0.051016565,95.32301725,95,0,0,0,272.5,-0.038197801
1.6971E+18,8.100199936,0.0083,0.046700001,0.021799998,4.670000076,5.800000191,7.599999905,-0.11338697,0.004860065,4.384155201,2.112792485,1.20321857,-0.120278882,-6.886667916,107.6107253,0,0.275595997,-0.534903303,-0.046635232,21.1009407,3274,61.40000153,35.20000076,-1.11328125,0.047431847,98.05927539,95,0,0,0,272.5,-0.059254739
1.6971E+18,8.200189952,0.0083,0.046700001,0.021799998,4.670000076,5.800000191,7.599999905,-0.104181867,0.00962508,4.375668658,2.00074064,1.211048656,-0.039816342,-6.886667861,107.6107253,0,0.275595997,-0.534903303,-0.046635232,21.1009407,3274,61.40000153,35.20000076,-1.11328125,0.047431847,98.05927539,95,0,0,0,282.5,-0.062981568
1.6971E+18,8.30020992,0.0083,0.046700001,0.021799998,4.670000076,5.800000191,7.599999905,-0.101113539,0.009976995,4.37419686,1.896796926,1.221938082,-0.000530399,-6.886667823,107.6107251,0,0.275595997,-0.534903303,-0.046635232,21.1009407,3274,61.40000153,35.20000076,-1.11328125,0.047431847,98.05927539,98,0,0,0,282.5,-0.066431038
1.6971E+18,8.401089792,0.0083,0.046700001,0.021799998,4.670000076,5.800000191,7.599999905,-0.100090723,0.007975431,4.374657704,1.783917676,1.22917962,0.063529928,-6.886667744,107.610725,0,0.275595997,-0.534903303,-0.046635232,21.1009407,3274,61.40000153,35.20000076,-1.11328125,0.047431847,98.05927539,98,0,0,0,282.5,-0.062801063
1.6971E+18,8.500059904,0.0083,0.046700001,0.021799998,4.670000076,5.800000191,7.599999905,-0.098045211,0.011454817,4.378045488,1.667607184,1.225118401,0.123203126,-6.886667668,107.6107249,0,0.275595997,-0.534903303,-0.046635232,21.1009407,3274,61.40000153,35.20000076,-1.11328125,0.047431847,98.05927539,98,0,0,0,282.5,-0.062983781
1.6971E+18,8.60004992,0.0083,0.046700001,0.021799998,4.670000076,5.800000191,7.599999905,-0.090885739,0.013724324,4.376329387,1.546319337,1.212615805,-0.012030346,-6.886667602,107.6107248,0,0.275595997,-0.534903303,-0.046635232,21.1009407,3274,61.40000153,35.20000076,-1.11328125,0.047431847,101.2868595,98,0,0,0,282.5,-0.057663564
1.6971E+18,8.703969792,0.0083,0.046700001,0.021799998,4.670000076,5.800000191,7.599999905,-0.092931252,0.01165276,4.365053858,1.417491407,1.195930158,-0.090441369,-6.886667533,107.6107247,0,0.275595997,-0.534903303,-0.046635232,21.07346153,3480,61.40000153,35.20000076,-1.11328125,0.047431847,101.2868595,98,0,0,0,292.5,-0.049757443
1.6971E+18,8.800219904,0.0083,0.046700001,0.021799998,4.670000076,5.800000191,7.599999905,-0.084748964,0.015108761,4.355132248,1.286531484,1.182347845,-0.083943065,-6.886667479,107.6107246,0,0.301547468,-0.646485874,-0.052063263,21.07346153,3480,61.40000153,35.20000076,-1.11328125,0.047431847,101.2868595,101,0,0,0,292.5,-0.0565813
1.6971E+18,8.900310016,0.0083,0.046700001,0.021799998,4.670000076,5.800000191,7.599999905,-0.08577178,0.010687134,4.352764387,1.148754565,1.167867226,0.040318129,-6.886667375,107.6107245,0,0.301547468,-0.646485874,-0.052063263,21.07346153,3480,61.40000153,35.20000076,-1.11328125,0.047431847,101.2868595,101,0,0,0,292.5,-0.050026152
1.6971E+18,9.000219904,0.0083,0.046700001,0.021799998,4.670000076,5.800000191,7.599999905,-0.081680636,0.012471803,4.341593072,1.008426023,1.160858033,-0.049787531,-6.886667298,107.6107244,0,0.301547468,-0.646485874,-0.052063263,21.07346153,3480,61.40000153,35.20000076,-2.08984375,0.047431847,101.2868595,101,0,0,0,292.5,-0.055239223
1.6971E+18,9.100239872,0.031200001,-0.0053,0.037500001,4.670000076,4.550000191,7.699999809,-0.080657821,0.011742629,4.330381609,0.865540681,1.154741379,-0.11214522,-6.886667244,107.6107242,0,0.301547468,-0.646485874,-0.052063263,21.07346153,3480,61.40000153,35.20000076,-2.08984375,0.03164696,105.4870445,101,0,0,0,292.5,-0.055290408
1.6971E+18,9.200249856,0.031200001,-0.0053,0.037500001,4.670000076,4.550000191,7.699999809,-0.076566677,0.012640075,4.322355056,0.718396531,1.146054417,-0.1086698,-6.886667161,107.6107241,0,0.301547468,-0.646485874,-0.052063263,21.07346153,3480,61.40000153,35.20000076,-2.08984375,0.03164696,105.4870445,101,0,0,0,302.5,-0.053827938
1.6971E+18,9.300310016,0.031200001,-0.0053,0.037500001,4.670000076,4.550000191,7.699999809,-0.069407206,0.01583405,4.313568685,0.572208345,1.142167243,-0.065494743,-6.886667092,107.610724,0,0.301547468,-0.646485874,-0.052063263,21.07346153,3480,61.40000153,35.20000076,-2.08984375,0.03164696,105.4870445,105,0,0,0,302.5,-0.055321608
1.6971E+18,9.400229888,0.031200001,-0.0053,0.037500001,4.670000076,4.550000191,7.699999809,-0.070430021,0.016440937,4.308881226,0.423775677,1.146808362,0.009409361,-6.886667051,107.6107239,0,0.301547468,-0.646485874,-0.052063263,21.07346153,3480,61.40000153,35.20000076,-2.08984375,0.03164696,105.4870445,105,0,0,0,302.5,-0.056807756
1.6971E+18,9.501679872,0.031200001,-0.0053,0.037500001,4.670000076,4.550000191,7.699999809,-0.064293246,0.018108178,4.312662799,0.26504368,1.155968981,0.047922654,-6.886666974,107.6107239,0,0.301547468,-0.646485874,-0.052063263,21.07346153,3480,61.40000153,35.20000076,-2.08984375,0.03164696,105.4870445,105,0,0,0,302.5,-0.06145874
1.6971E+18,9.600219904,0.031200001,-0.0053,0.037500001,4.670000076,4.550000191,7.699999809,-0.059179406,0.019102275,4.321163437,0.109273036,1.163498493,0.112288873,-6.886666927,107.6107238,0,0.301547468,-0.646485874,-0.052063263,21.07346153,3480,61.40000153,35.20000076,-2.08984375,0.03164696,110.2792876,105,0,0,0,302.5,-0.063240796
1.6971E+18,9.704769792,0.031200001,-0.0053,0.037500001,4.670000076,4.550000191,7.699999809,-0.059179406,0.017216658,4.337199887,-0.045270559,1.169859129,0.17643108,-6.88666687,107.6107237,0,0.301547468,-0.646485874,-0.052063263,21.06918144,3626,61.40000153,35.20000076,-2.08984375,0.03164696,110.2792876,105,0,0,0,312.5,-0.059740175
1.6971E+18,9.800219904,0.031200001,-0.0053,0.037500001,4.670000076,4.550000191,7.699999809,-0.055088263,0.017708626,4.352452174,-0.197440641,1.170670839,0.157631699,-6.886666789,107.6107236,0,0.372854125,-0.771329333,-0.037826045,21.06918144,3626,61.40000153,35.20000076,-2.08984375,0.03164696,110.2792876,105,0,0,0,312.5,-0.05998674
1.6971E+18,9.900249856,0.031200001,-0.0053,0.037500001,4.670000076,4.550000191,7.699999809,-0.054065447,0.016257763,4.355886939,-0.434915147,1.145680809,0.042868103,-6.886666728,107.6107235,0,0.372854125,-0.771329333,-0.037826045,21.06918144,3626,61.40000153,35.20000076,-2.08984375,0.03164696,110.2792876,110,0,0,0,312.5,-0.057101369
1.6971E+18,10.0002199,0.031200001,-0.0053,0.037500001,4.670000076,4.550000191,7.699999809,-0.048951488,0.018750343,4.354528323,-0.512857743,1.133569439,-0.028909825,-6.886666664,107.6107233,0,0.372854125,-0.771329333,-0.037826045,21.06918144,3626,61.40000153,35.20000076,-1.6015625,0.03164696,110.2792876,110,0,0,0,312.5,-0.048580356
1.6971E+18,10.10019994,-0.018299999,-0.0023,0.048299998,5.159999847,2.819999933,7.400000095,-0.044860344,0.019005802,4.346395849,-0.752181633,1.096111621,-0.067922839,-6.886666566,107.6107233,0,0.372854125,-0.771329333,-0.037826045,21.06918144,3626,61.40000153,35.20000076,-1.6015625,0.018443968,115.5691231,110,0,0,0,312.5,-0.048643511
1.6971E+18,10.20024986,-0.018299999,-0.0023,0.048299998,5.159999847,2.819999933,7.400000095,-0.0407692,0.019589897,4.337633824,-0.829423701,1.081731265,-0.178704551,-6.88666648,107.6107232,0,0.372854125,-0.771329333,-0.037826045,21.06918144,3626,61.40000153,35.20000076,-1.6015625,0.018443968,115.5691231,110,0,0,0,320,-0.042658377
1.6971E+18,10.30020992,-0.018299999,-0.0023,0.048299998,5.159999847,2.819999933,7.400000095,-0.037700872,0.020075018,4.324694301,-1.063393049,1.045379539,-0.059846315,-6.886666418,107.6107231,0,0.372854125,-0.771329333,-0.037826045,21.06918144,3626,61.40000153,35.20000076,-1.6015625,0.018443968,115.5691231,110,0,0,0,320,-0.042236313
1.6971E+18,10.40028979,-0.018299999,-0.0023,0.048299998,5.159999847,2.819999933,7.400000095,-0.030541401,0.022367524,4.323970787,-1.138805299,1.035669024,-0.017410281,-6.886666347,107.610723,0,0.372854125,-0.771329333,-0.037826045,21.06918144,3626,61.40000153,35.20000076,-1.6015625,0.018443968,115.5691231,115,0,0,0,320,-0.043148827
1.6971E+18,10.50022989,-0.018299999,-0.0023,0.048299998,5.159999847,2.819999933,7.400000095,-0.028495889,0.019800119,4.326373244,-1.292241002,1.020831667,0.030979995,-6.886666276,107.6107229,0,0.372854125,-0.771329333,-0.037826045,21.06918144,3626,61.40000153,35.20000076,-1.6015625,0.018443968,115.5691231,115,0,0,0,320,-0.044732038
1.6971E+18,10.60019994,-0.018299999,-0.0023,0.048299998,5.159999847,2.819999933,7.400000095,-0.027473073,0.01900983,4.327115549,-1.44122522,1.012223292,0.005949098,-6.886666228,107.6107228,0,0.372854125,-0.771329333,-0.037826045,21.06918144,3626,61.40000153,35.20000076,-1.6015625,0.018443968,120.3095804,115,0,0,0,320,-0.045573775
1.6971E+18,10.70016,-0.018299999,-0.0023,0.048299998,5.159999847,2.819999933,7.400000095,-0.022359114,0.022266839,4.324306918,-1.585873912,1.005597531,-0.084900891,-6.886666165,107.6107227,0,0.372854125,-0.771329333,-0.037826045,21.08114052,3426,61.40000153,35.20000076,-1.6015625,0.018443968,120.3095804,115,0,0,0,330,-0.048246756
1.6971E+18,10.80756992,-0.018299999,-0.0023,0.048299998,5.159999847,2.819999933,7.400000095,-0.020313601,0.021528548,4.314261874,-1.737580593,1.000399043,-0.113128025,-6.886666103,107.6107226,1,0.442459058,-0.876377733,-0.076391507,21.08114052,3426,61.40000153,35.20000076,-1.6015625,0.018443968,120.3095804,120,0,0,0,330,-0.048466124
1.6971E+18,10.90029978,-0.018299999,-0.0023,0.048299998,5.159999847,2.819999933,7.400000095,-0.015199642,0.021999177,4.30517824,-1.899329435,1.000947016,-0.050343966,-6.886666038,107.6107225,1,0.442459058,-0.876377733,-0.076391507,21.08114052,3426,61.40000153,35.20000076,-1.6015625,0.018443968,120.3095804,120,0,0,0,330,-0.048240233
1.6971E+18,11.0003799,0.0061,-0.0068,0.048299998,5.159999847,2.819999933,7.400000095,-0.005994539,0.024449166,4.29046752,-2.066962801,1.002070939,-0.150449823,-6.886665976,107.6107225,1,0.442459058,-0.876377733,-0.076391507,21.08114052,3426,61.40000153,35.20000076,-2.578125,0.009135097,120.3095804,120,0,0,0,330,-0.050553117
1.6971E+18,11.10075981,0.0061,-0.0068,0.048299998,5.179999828,0.889999986,7.599999905,-0.001903396,0.02609029,4.27861711,-2.241351873,1.00127044,-0.148520184,-6.886665892,107.6107224,1,0.442459058,-0.876377733,-0.076391507,21.08114052,3426,61.40000153,35.20000076,-2.578125,0.009135097,126.3452729,120,0,0,0,330,-0.051310204
1.6971E+18,11.20022989,0.0061,-0.0068,0.048299998,5.179999828,0.889999986,7.599999905,0.001164932,0.023420598,4.264475718,-2.415422113,0.99405848,-0.138626561,-6.886665837,107.6107223,1,0.442459058,-0.876377733,-0.076391507,21.08114052,3426,61.40000153,35.20000076,-2.578125,0.009135097,126.3452729,120,0,0,0,340,-0.047012754
1.6971E+18,11.30007987,0.0061,-0.0068,0.048299998,5.179999828,0.889999986,7.599999905,0.003210444,0.022552945,4.244296367,-2.587786502,0.981888491,-0.169817425,-6.886665756,107.6107222,1,0.442459058,-0.876377733,-0.076391507,21.08114052,3426,61.40000153,35.20000076,-2.578125,0.009135097,126.3452729,120,0,0,0,340,-0.042815406
1.6971E+18,11.40004992,0.0061,-0.0068,0.048299998,5.179999828,0.889999986,7.599999905,0.012415547,0.027614256,4.222738752,-2.755359432,0.970236684,-0.227947939,-6.886665693,107.6107221,1,0.442459058,-0.876377733,-0.076391507,21.08114052,3426,61.40000153,35.20000076,-2.578125,0.009135097,126.3452729,126,0,0,0,340,-0.045985356
1.6971E+18,11.50016,0.0061,-0.0068,0.048299998,5.179999828,0.889999986,7.599999905,0.01446106,0.025554014,4.207960122,-2.915052306,0.960620239,-0.118410198,-6.886665654,107.610722,1,0.442459058,-0.876377733,-0.076391507,21.08114052,3426,61.40000153,35.20000076,-2.578125,0.009135097,126.3452729,126,0,0,0,340,-0.044859972
1.6971E+18,11.60020992,0.0061,-0.0068,0.048299998,5.179999828,0.889999986,7.599999905,0.015483875,0.025407067,4.192563047,-3.069319258,0.943767488,-0.132790515,-6.886665582,107.610722,1,0.442459058,-0.876377733,-0.076391507,21.08114052,3426,61.40000153,35.20000076,-2.578125,0.009135097,131.372764,126,0,0,0,340,-0.041680411
1.6971E+18,11.70025984,0.0061,-0.0068,0.048299998,5.179999828,0.889999986,7.599999905,0.023666162,0.02746363,4.179665807,-3.22458371,0.925431301,-0.138562696,-6.886665512,107.6107219,1,0.442459058,-0.876377733,-0.076391507,21.09696007,3294,61.40000153,35.20000076,-2.578125,0.009135097,131.372764,126,0,0,0,350,-0.035808258
1.6971E+18,11.80027981,0.0061,-0.0068,0.048299998,5.179999828,0.889999986,7.599999905,0.024688978,0.027166892,4.165955362,-3.380744866,0.906822622,-0.219955661,-6.886665486,107.6107218,1,0.536235373,-0.999672708,-0.063919402,21.09696007,3294,61.40000153,35.20000076,-2.578125,0.009135097,131.372764,126,0,0,0,350,-0.040230203
1.6971E+18,11.90022989,0.0061,-0.0068,0.048299998,5.179999828,0.889999986,7.599999905,0.034916778,0.030350497,4.141346949,-3.532591851,0.892495493,-0.330739248,-6.88666543,107.6107217,1,0.536235373,-0.999672708,-0.063919402,21.09696007,3294,61.40000153,35.20000076,-2.578125,0.009135097,131.372764,131,0,0,0,350,-0.03854496
1.6971E+18,12.00024986,0.0069,-0.0031,0.0568,4.760000229,-0.100000001,7.300000191,0.032871265,0.027166145,4.114288671,-3.688518741,0.889150046,-0.275778442,-6.886665393,107.6107217,1,0.536235373,-0.999672708,-0.063919402,21.09696007,3294,61.40000153,35.20000076,-2.7734375,0.00756439,131.372764,131,0,0,0,350,-0.041267443
1.6971E+18,12.1005399,0.0069,-0.0031,0.0568,4.760000229,-0.100000001,7.300000191,0.041053553,0.028872261,4.081631922,-3.836441714,0.890429007,-0.325405608,-6.886665336,107.6107216,1,0.536235373,-0.999672708,-0.063919402,21.09696007,3294,61.40000153,35.20000076,-2.7734375,0.00756439,136.0442072,131,0,0,0,350,-0.043888848
1.6971E+18,12.20463002,0.0069,-0.0031,0.0568,4.760000229,-0.100000001,7.300000191,0.047190208,0.029911052,4.052090037,-4.055187391,0.88575372,-0.150013364,-6.886665266,107.6107215,1,0.536235373,-0.999672708,-0.063919402,21.09696007,3294,61.40000153,35.20000076,-2.7734375,0.00756439,136.0442072,131,0,0,0,357.5,-0.047063239
1.6971E+18,12.30026982,0.0069,-0.0031,0.0568,4.760000229,-0.100000001,7.300000191,0.055372496,0.032933231,4.049216059,-4.126721649,0.882336573,-0.09502922,-6.886665225,107.6107215,1,0.536235373,-0.999672708,-0.063919402,21.09696007,3294,61.40000153,35.20000076,-2.7734375,0.00756439,136.0442072,131,0,0,0,357.5,-0.041286346
1.6971E+18,12.40428979,0.0069,-0.0031,0.0568,4.760000229,-0.100000001,7.300000191,0.055372496,0.030868994,4.03688644,-4.273303945,0.876685035,-0.119573748,-6.886665171,107.6107213,1,0.536235373,-0.999672708,-0.063919402,21.09696007,3294,61.40000153,35.20000076,-2.7734375,0.00756439,136.0442072,136,0,0,0,357.5,-0.041063804
1.6971E+18,12.50015002,0.0069,-0.0031,0.0568,4.760000229,-0.100000001,7.300000191,0.068668742,0.035368547,4.022443513,-4.420319323,0.871609125,-0.116249923,-6.886665112,107.6107213,1,0.536235373,-0.999672708,-0.063919402,21.09696007,3294,61.40000153,35.20000076,-2.7734375,0.00756439,136.0442072,136,0,0,0,357.5,-0.041450743
1.6971E+18,12.60022989,0.0069,-0.0031,0.0568,4.760000229,-0.100000001,7.300000191,0.066623111,0.033472683,4.009040583,-4.568665128,0.858070857,-0.204073703,-6.886665063,107.6107212,1,0.536235373,-0.999672708,-0.063919402,21.09696007,3294,61.40000153,35.20000076,-2.7734375,0.00756439,141.107914,136,0,0,0,357.5,-0.040983949
1.6971E+18,12.70366003,0.0069,-0.0031,0.0568,4.760000229,-0.100000001,7.300000191,0.072759886,0.035303555,3.983000519,-4.822340171,0.835559414,-0.165723519,-6.886664989,107.6107211,1,0.536235373,-0.999672708,-0.063919402,21.08913231,3466,61.40000153,35.20000076,-2.7734375,0.00756439,141.107914,136,0,0,0,367.5,-0.037206613
1.6971E+18,12.80034995,0.0069,-0.0031,0.0568,4.760000229,-0.100000001,7.300000191,0.078896542,0.035661004,3.978329289,-4.909971527,0.824358308,-0.131138746,-6.886664944,107.6107211,1,0.581413326,-1.042720846,-0.067730303,21.08913231,3466,61.40000153,35.20000076,-2.7734375,0.00756439,141.107914,136,0,0,0,367.5,-0.034610022
1.6971E+18,12.90012979,0.0069,-0.0031,0.0568,4.760000229,-0.100000001,7.300000191,0.082987685,0.032917313,3.966595052,-5.106557374,0.803654313,-0.101190766,-6.886664898,107.610721,1,0.581413326,-1.042720846,-0.067730303,21.08913231,3466,61.40000153,35.20000076,-2.7734375,0.00756439,141.107914,141,0,0,0,367.5,-0.027420675
1.6971E+18,13.00330982,-0.0113,-0.0105,0.0678,4.510000229,-2.349999905,7.199999809,0.091169972,0.034553137,3.953130192,-5.300349538,0.787285845,-0.15768143,-6.886664856,107.6107209,1,0.581413326,-1.042720846,-0.067730303,21.08913231,3466,61.40000153,35.20000076,-1.40625,0.015425304,141.107914,141,0,0,0,367.5,-0.037053686
1.6971E+18,13.10003994,-0.0113,-0.0105,0.0678,4.510000229,-2.349999905,7.199999809,0.09935226,0.037594113,3.937649831,-5.487894034,0.770404211,-0.16922849,-6.886664836,107.6107209,1,0.581413326,-1.042720846,-0.067730303,21.08913231,3466,61.40000153,35.20000076,-1.40625,0.015425304,148.1716391,141,0,0,0,367.5,-0.032674164
1.6971E+18,13.20007987,-0.0113,-0.0105,0.0678,4.510000229,-2.349999905,7.199999809,0.09935226,0.035361096,3.928631117,-5.671314421,0.755940783,-0.092118798,-6.886664822,107.6107208,1,0.581413326,-1.042720846,-0.067730303,21.08913231,3466,61.40000153,35.20000076,-1.40625,0.015425304,148.1716391,141,0,0,0,377.5,-0.032433622
1.6971E+18,13.30022989,-0.0113,-0.0105,0.0678,4.510000229,-2.349999905,7.199999809,0.102420588,0.035419773,3.92512588,-5.850608561,0.73891527,-0.088282462,-6.886664791,107.6107207,1,0.581413326,-1.042720846,-0.067730303,21.08913231,3466,61.40000153,35.20000076,-1.40625,0.015425304,148.1716391,141,0,0,0,377.5,-0.026068531
1.6971E+18,13.40018995,-0.0113,-0.0105,0.0678,4.510000229,-2.349999905,7.199999809,0.11162569,0.036799241,3.927396788,-6.020334306,0.725085556,-0.013356368,-6.886664804,107.6107207,1,0.581413326,-1.042720846,-0.067730303,21.08913231,3466,61.40000153,35.20000076,-1.40625,0.015425304,148.1716391,148,0,0,0,377.5,-0.035791889
1.6971E+18,13.50027981,-0.0113,-0.0105,0.0678,4.510000229,-2.349999905,7.199999809,0.112648387,0.037260015,3.935808162,-6.182597701,0.715830707,0.109652965,-6.886664764,107.6107206,1,0.581413326,-1.042720846,-0.067730303,21.08913231,3466,61.40000153,35.20000076,-1.40625,0.015425304,148.1716391,148,0,0,0,377.5,-0.031033929
1.6971E+18,13.60036992,-0.0113,-0.0105,0.0678,4.510000229,-2.349999905,7.199999809,0.12185349,0.037485927,3.935025708,-6.337650737,0.713201139,-0.008284011,-6.88666477,107.6107205,1,0.581413326,-1.042720846,-0.067730303,21.08913231,3466,61.40000153,35.20000076,-1.40625,0.015425304,153.8741119,148,0,0,0,377.5,-0.031541072
1.6971E+18,13.70014003,-0.0113,-0.0105,0.0678,4.510000229,-2.349999905,7.199999809,0.127990146,0.0384202,3.927127286,-6.483607326,0.707174337,-0.106400813,-6.886664693,107.6107204,1,0.581413326,-1.042720846,-0.067730303,21.06123161,3460,61.40000153,35.20000076,-1.40625,0.015425304,153.8741119,148,0,0,0,387.5,-0.033301614
1.6971E+18,13.80016998,-0.0113,-0.0105,0.0678,4.510000229,-2.349999905,7.199999809,0.136172433,0.041710038,3.926358073,-6.624958033,0.695070495,-0.027637863,-6.886664634,107.6107203,1,0.651587848,-1.149894293,-0.038137063,21.06123161,3460,61.40000153,35.20000076,-1.40625,0.015425304,153.8741119,148,0,0,0,387.5,-0.031901859
1.6971E+18,13.9002199,-0.0113,-0.0105,0.0678,4.510000229,-2.349999905,7.199999809,0.138218064,0.041299045,3.928722517,-6.765246961,0.679975542,0.074796387,-6.886664626,107.6107203,1,0.651587848,-1.149894293,-0.038137063,21.06123161,3460,61.40000153,35.20000076,-1.40625,0.015425304,153.8741119,153,0,0,0,387.5,-0.025912622
1.6971E+18,14.00004992,-0.0244,0.0061,0.066399999,4.829999924,-3.480000019,7.400000095,0.141286392,0.038698509,3.940097133,-6.913524857,0.659562084,0.117653051,-6.886664709,107.6107202,1,0.651587848,-1.149894293,-0.038137063,21.06123161,3460,61.40000153,35.20000076,-2.67578125,0.025150944,153.8741119,153,0,0,0,387.5,-0.024812721
1.6971E+18,14.10015002,-0.0244,0.0061,0.066399999,4.829999924,-3.480000019,7.400000095,0.153559823,0.042275291,3.946282871,-7.065063259,0.639428699,0.033848898,-6.886664697,107.6107201,1,0.651587848,-1.149894293,-0.038137063,21.06123161,3460,61.5,35.20000076,-2.67578125,0.025150944,158.6077318,153,0,0,0,387.5,-0.023918081
1.6971E+18,14.20028979,-0.0244,0.0061,0.066399999,4.829999924,-3.480000019,7.400000095,0.155605335,0.03860727,3.951889457,-7.22492975,0.614959895,-0.014238214,-6.886664606,107.6107201,1,0.651587848,-1.149894293,-0.038137063,21.06123161,3460,61.5,35.20000076,-2.67578125,0.025150944,158.6077318,153,0,0,0,395,-0.026958326
1.6971E+18,14.30015002,-0.0244,0.0061,0.066399999,4.829999924,-3.480000019,7.400000095,0.16174211,0.041410424,3.951574255,-7.397526484,0.586180497,-0.061565693,-6.886664589,107.6107201,1,0.651587848,-1.149894293,-0.038137063,21.06123161,3460,61.5,35.20000076,-2.67578125,0.025150944,158.6077318,153,0,0,0,395,-0.020344481
1.6971E+18,14.40017997,-0.0244,0.0061,0.066399999,4.829999924,-3.480000019,7.400000095,0.167878766,0.041630648,3.946232473,-7.669607545,0.534183921,-0.078791665,-6.886664581,107.61072,1,0.651587848,-1.149894293,-0.038137063,21.06123161,3460,61.5,35.20000076,-2.67578125,0.025150944,158.6077318,158,0,0,0,395,-0.011829687
1.6971E+18,14.50236979,-0.0244,0.0061,0.066399999,4.829999924,-3.480000019,7.400000095,0.175038238,0.038379155,3.942337291,-7.762482876,0.529014209,-0.091833759,-6.886664593,107.61072,1,0.651587848,-1.149894293,-0.038137063,21.06123161,3460,61.5,35.20000076,-2.67578125,0.025150944,158.6077318,158,0,0,0,395,-0.015222657
1.6971E+18,14.60030003,-0.0244,0.0061,0.066399999,4.829999924,-3.480000019,7.400000095,0.18424334,0.043655429,3.943646789,-7.947014585,0.509550255,-0.049120842,-6.886664553,107.6107199,1,0.651587848,-1.149894293,-0.038137063,21.06123161,3460,61.5,35.20000076,-2.67578125,0.025150944,165.8435828,158,0,0,0,395,-0.0183597
1.6971E+18,14.70017997,-0.0244,0.0061,0.066399999,4.829999924,-3.480000019,7.400000095,0.185266156,0.041166663,3.938114093,-8.13765131,0.50220664,-0.058876637,-6.886664533,107.6107198,1,0.651587848,-1.149894293,-0.038137063,21.09300041,3354,61.5,35.20000076,-2.67578125,0.025150944,165.8435828,158,0,0,0,405,-0.022404268
1.6971E+18,14.80027981,-0.0244,0.0061,0.066399999,4.829999924,-3.480000019,7.400000095,0.190380116,0.041076448,3.936052892,-8.313899777,0.489847337,-0.002252244,-6.886664595,107.6107197,1,0.702737079,-1.21622647,-0.010209543,21.09300041,3354,61.5,35.20000076,-2.67578125,0.025150944,165.8435828,158,0,0,0,405,-0.018963082
1.6971E+18,14.90408986,-0.0244,0.0061,0.066399999,4.829999924,-3.480000019,7.400000095,0.193448443,0.041019157,3.939292898,-8.473885002,0.470237955,0.001043287,-6.886664645,107.6107197,1,0.702737079,-1.21622647,-0.010209543,21.09300041,3354,61.5,35.20000076,-2.67578125,0.025150944,165.8435828,158,0,0,0,405,-0.018514618
1.6971E+18,15.00359987,0.101800002,0.0017,0.046,4.679999828,-5.21999979,7.300000191,0.201630731,0.041253641,3.935007343,-8.685626612,0.434417197,-0.068884809,-6.886664669,107.6107196,1,0.702737079,-1.21622647,-0.010209543,21.09300041,3354,61.5,35.20000076,-1.6015625,0.101814196,165.8435828,165,0,0,0,405,-0.015638974
1.6971E+18,15.10008986,0.101800002,0.0017,0.046,4.679999828,-5.21999979,7.300000191,0.210835714,0.041964632,3.925487209,-8.815071385,0.404962656,-0.134590235,-6.886664601,107.6107196,1,0.702737079,-1.21622647,-0.010209543,21.09300041,3354,61.5,35.20000076,-1.6015625,0.101814196,170.6010822,165,0,0,0,405,-0.010890363
1.6971E+18,15.20032998,0.101800002,0.0017,0.046,4.679999828,-5.21999979,7.300000191,0.216972489,0.046781767,3.916284413,-8.938309493,0.373422622,-0.160790622,-6.886664474,107.6107195,1,0.702737079,-1.21622647,-0.010209543,21.09300041,3354,61.5,35.20000076,-1.6015625,0.101814196,170.6010822,165,0,0,0,415,-0.008466316
1.6971E+18,15.3002199,0.101800002,0.0017,0.046,4.679999828,-5.21999979,7.300000191,0.226177473,0.046885028,3.904013307,-9.061616792,0.344227599,-0.206817682,-6.886664479,107.6107195,1,0.702737079,-1.21622647,-0.010209543,21.09300041,3354,61.5,35.20000076,-1.6015625,0.101814196,170.6010822,165,0,0,0,415,-0.006055118
1.6971E+18,15.40008986,0.101800002,0.0017,0.046,4.679999828,-5.21999979,7.300000191,0.228223104,0.045290358,3.889587465,-9.185246981,0.316236661,-0.168402912,-6.886664495,107.6107194,1,0.702737079,-1.21622647,-0.010209543,21.09300041,3354,61.5,35.20000076,-1.6015625,0.101814196,170.6010822,170,0,0,0,415,-0.005533371
1.6971E+18,15.50009984,0.101800002,0.0017,0.046,4.679999828,-5.21999979,7.300000191,0.228223104,0.042635184,3.884093634,-9.249235604,0.301892074,-0.146245298,-6.886664515,107.6107193,1,0.702737079,-1.21622647,-0.010209543,21.09300041,3354,61.5,35.20000076,-1.6015625,0.101814196,170.6010822,170,0,0,0,415,-0.004615458
1.6971E+18,15.60170982,0.101800002,0.0017,0.046,4.679999828,-5.21999979,7.300000191,0.235382576,0.043694563,3.867635207,-9.380030025,0.274342734,-0.202005375,-6.886664578,107.6107193,-1,0.702737079,-1.21622647,-0.010209543,21.09300041,3354,61.5,35.20000076,-1.6015625,0.101814196,175.1191641,170,0,0,0,415,-0.003932996
1.6971E+18,15.70017997,0.101800002,0.0017,0.046,4.679999828,-5.21999979,7.300000191,0.242542048,0.042824663,3.855707065,-9.518512305,0.245234787,-0.189438286,-6.886664644,107.6107193,-1,0.702737079,-1.21622647,-0.010209543,21.10087013,3260,61.5,35.20000076,-1.6015625,0.101814196,175.1191641,170,0,0,0,425,-0.000837181
1.6971E+18,15.80013978,0.101800002,0.0017,0.046,4.679999828,-5.21999979,7.300000191,0.250724335,0.044466279,3.851078973,-9.66618585,0.210967604,-0.069291792,-6.886664713,107.6107193,-1,0.750741669,-1.313729061,0.019029223,21.10087013,3260,61.5,35.20000076,-1.6015625,0.101814196,175.1191641,170,0,0,0,425,-0.002485703
1.6971E+18,15.90014003,0.101800002,0.0017,0.046,4.679999828,-5.21999979,7.300000191,0.254815478,0.046477832,3.842979385,-9.887392923,0.167423711,-0.068486936,-6.886664785,107.6107193,-1,0.750741669,-1.313729061,0.019029223,21.10087013,3260,61.5,35.20000076,-1.6015625,0.101814196,175.1191641,175,0,0,0,425,-0.004940041
1.6971E+18,16.00007987,0.101800002,0.0017,0.046,4.679999828,-5.21999979,7.300000191,0.264020581,0.048235778,3.837105005,-10.02533193,0.149382999,-0.115288046,-6.88666486,107.6107192,-1,0.750741669,-1.313729061,0.019029223,21.10087013,3260,61.5,35.20000076,-2.1875,0.101814196,175.1191641,175,0,0,0,425,-0.005910564
1.6971E+18,16.10024986,0.029999999,0.0051,0.059900001,4.400000095,-6.900000095,7.199999809,0.271180053,0.048102591,3.834685892,-10.09029435,0.14034995,-0.069689052,-6.886664939,107.6107192,-1,0.750741669,-1.313729061,0.019029223,21.10087013,3260,61.5,35.20000076,-2.1875,0.030430412,180.430906,175,0,0,0,425,-0.005224482
1.6971E+18,16.20013978,0.029999999,0.0051,0.059900001,4.400000095,-6.900000095,7.199999809,0.276294012,0.047786701,3.826007152,-10.21368707,0.12194564,-0.085654522,-6.88666502,107.6107192,-1,0.750741669,-1.313729061,0.019029223,21.10087013,3260,61.5,35.20000076,-2.1875,0.030430412,180.430906,175,0,0,0,432.5,-0.001102988
1.6971E+18,16.30123981,0.029999999,0.0051,0.059900001,4.400000095,-6.900000095,7.199999809,0.280385156,0.046689168,3.813214553,-10.32743579,0.097359236,-0.126987408,-6.886665104,107.6107192,-1,0.750741669,-1.313729061,0.019029223,21.10087013,3260,61.5,35.20000076,-2.1875,0.030430412,180.430906,175,0,0,0,432.5,-0.008321865
1.6971E+18,16.40020992,0.029999999,0.0051,0.059900001,4.400000095,-6.900000095,7.199999809,0.285498996,0.046508566,3.806520989,-10.4350889,0.071917897,-0.098650549,-6.88666519,107.6107192,-1,0.750741669,-1.313729061,0.019029223,21.10087013,3260,61.5,35.20000076,-2.1875,0.030430412,180.430906,180,0,0,0,432.5,-0.000632729
1.6971E+18,16.50138982,0.029999999,0.0051,0.059900001,4.400000095,-6.900000095,7.199999809,0.291635771,0.044696845,3.803973745,-10.52514279,0.038094058,-0.11568915,-6.886665278,107.6107192,-1,0.750741669,-1.313729061,0.019029223,21.10087013,3260,61.5,35.20000076,-2.1875,0.030430412,180.430906,180,0,0,0,432.5,-0.016911864
1.6971E+18,16.60411981,0.029999999,0.0051,0.059900001,4.400000095,-6.900000095,7.199999809,0.290612955,0.044224601,3.799636083,-10.61174995,360.1791358,-0.139565562,-6.88666537,107.6107192,-1,0.750741669,-1.313729061,0.019029223,21.10087013,3260,61.5,35.20000076,-2.1875,0.030430412,183.5461181,180,0,0,0,432.5,-0.065373465
1.6971E+18,16.70023987,0.029999999,0.0051,0.059900001,4.400000095,-6.900000095,7.199999809,0.302886386,0.048336558,3.795881418,-10.69623441,360.1391179,-0.085438414,-6.886665465,107.6107192,-1,0.750741669,-1.313729061,0.019029223,21.10090065,3226,61.5,35.20000076,-2.1875,0.030430412,183.5461181,180,0,0,0,442.5,-0.00080987
1.6971E+18,16.80205978,0.029999999,0.0051,0.059900001,4.400000095,-6.900000095,7.199999809,0.305954714,0.048297346,3.785502806,-10.78086237,360.0790364,-0.21824351,-6.886665562,107.6107191,-1,0.719510911,-1.361027532,0.019040996,21.10090065,3226,61.5,35.20000076,-2.1875,0.030430412,183.5461181,183,0,0,0,442.5,-0.012756463
1.6971E+18,16.90018995,0.029999999,0.0051,0.059900001,4.400000095,-6.900000095,7.199999809,0.30697753,0.044933029,3.767796383,-10.86689124,360.027948,-0.235896572,-6.886665663,107.6107191,-1,0.719510911,-1.361027532,0.019040996,21.10090065,3226,61.5,35.20000076,-2.1875,0.030430412,183.5461181,183,0,0,0,442.5,-0.020915845
1.6971E+18,17.0002199,0.029999999,0.0051,0.059900001,4.400000095,-6.900000095,7.199999809,0.316182513,0.045167547,3.748376848,-10.95531273,359.9774336,-0.273617486,-6.886665768,107.6107191,-1,0.719510911,-1.361027532,0.019040996,21.10090065,3226,61.5,35.20000076,-1.796875,0.030430412,183.5461181,183,0,0,0,442.5,-0.017857103
1.6971E+18,17.10010982,0.023200002,-0.0052,0.060200002,4.869999886,-7.880000114,7.300000191,0.3243648,0.046671342,3.729514256,-11.03818189,359.9351197,-0.236920126,-6.886665876,107.6107191,-1,0.719510911,-1.361027532,0.019040996,21.10090065,3226,61.5,35.20000076,-1.796875,0.023775619,186.1624005,183,0,0,0,442.5,0.032065634
1.6971E+18,17.20027981,0.023200002,-0.0052,0.060200002,4.869999886,-7.880000114,7.300000191,0.32947876,0.04634225,3.710319804,-11.12363245,359.8961132,-0.241174716,-6.886665988,107.6107191,-1,0.719510911,-1.361027532,0.019040996,21.10090065,3226,61.5,35.20000076,-1.796875,0.023775619,186.1624005,183,0,0,0,452.5,0.011768317
1.6971E+18,17.30009984,0.023200002,-0.0052,0.060200002,4.869999886,-7.880000114,7.300000191,0.333569903,0.045753051,3.681079455,-11.24938364,359.8533618,-0.211188604,-6.886666103,107.610719,-1,0.719510911,-1.361027532,0.019040996,21.10090065,3226,61.5,35.20000076,-1.796875,0.023775619,186.1624005,186,0,0,0,452.5,0.02591398
1.6971E+18,17.4022999,0.023200002,-0.0052,0.060200002,4.869999886,-7.880000114,7.300000191,0.337661047,0.048720866,3.671573843,-11.32807401,359.8268199,-0.14944286,-6.88666622,107.610719,-1,0.719510911,-1.361027532,0.019040996,21.10090065,3226,61.5,35.20000076,-1.796875,0.023775619,186.1624005,186,0,0,0,452.5,0.013148715
1.6971E+18,17.50448998,0.023200002,-0.0052,0.060200002,4.869999886,-7.880000114,7.300000191,0.347888846,0.051138338,3.661103831,-11.39663691,359.799212,-0.115504935,-6.886666341,107.610719,-1,0.719510911,-1.361027532,0.019040996,21.10090065,3226,61.5,35.20000076,-1.796875,0.023775619,186.1624005,186,0,0,0,452.5,0.019275768
1.6971E+18,17.60076979,0.023200002,-0.0052,0.060200002,4.869999886,-7.880000114,7.300000191,0.357093949,0.051803537,3.65914001,-11.43297316,359.7866654,-0.07714035,-6.886666465,107.610719,-1,0.719510911,-1.361027532,0.019040996,21.10090065,3226,61.5,35.20000076,-1.796875,0.023775619,188.4593649,186,0,0,0,452.5,0.021082586
1.6971E+18,17.70028979,0.023200002,-0.0052,0.060200002,4.869999886,-7.880000114,7.300000191,0.361185093,0.049329765,3.662895957,-11.49406346,359.7566246,-0.004501434,-6.886666591,107.6107189,-1,0.719510911,-1.361027532,0.019040996,21.10091019,3266,61.5,35.20000076,-1.796875,0.023775619,188.4593649,186,0,0,0,462.5,0.021097621
1.6971E+18,17.80026982,0.023200002,-0.0052,0.060200002,4.869999886,-7.880000114,7.300000191,0.361185093,0.04820526,3.671456389,-11.58522525,359.7074497,0.071767009,-6.88666672,107.6107189,-1,0.86998606,-1.344725603,0.080489865,21.10091019,3266,61.5,35.20000076,-1.796875,0.023775619,188.4593649,188,0,0,0,462.5,0.025253849
1.6971E+18,17.91044992,0.023200002,-0.0052,0.060200002,4.869999886,-7.880000114,7.300000191,0.36936738,0.04962552,3.67687206,-11.63661091,359.6694272,0.015806528,-6.886666853,107.6107189,-1,0.86998606,-1.344725603,0.080489865,21.10091019,3266,61.5,35.20000076,-1.796875,0.023775619,188.4593649,188,0,0,0,462.5,0.038862385
1.6971E+18,18.00434995,-0.052999999,-0.0023,0.071900003,4.349999905,-8.649999619,7,0.375504036,0.047511384,3.679139979,-11.65838207,359.6482975,-0.026813343,-6.886666987,107.6107188,-1,0.86998606,-1.344725603,0.080489865,21.10091019,3266,61.5,35.20000076,-1.50390625,0.053049882,188.4593649,188,0,0,0,462.5,0.032542624
1.6971E+18,18.10136986,-0.052999999,-0.0023,0.071900003,4.349999905,-8.649999619,7,0.381640811,0.048173971,3.676725136,-11.71349036,359.5916329,-0.128755776,-6.886667125,107.6107188,-1,0.86998606,-1.344725603,0.080489865,21.10091019,3266,61.5,35.20000076,-1.50390625,0.053049882,189.4480606,188,0,0,0,462.5,0.025789607
