Index,Time,field.velocity_x,field.velocity_y,field.velocity_z,field.dvl_roll,field.dvl_pitch,field.dvl_yaw,field.depth_data,field.depth_rate,field.roll_data,field.pitch_data,field.yaw_data,field.yaw_rate_data,field.lat,field.long,field.gps_status,field.navigasi_north,field.navigasi_east,field.navigasi_depth,field.voltage,field.current,field.humidity,field.temperature,field.pressure,field.surge,field.des_mm,field.cur_mm,field.roll_sp,field.servo_position,field.yaw_sp,field.internal_volume,field.bow_percentage
1.6971E+18,0,0.079700001,0.018999999,-0.0027,4.869999886,6.829999924,356.1000061,-0.043837647,-0.009281799,4.462615367,3.885643592,347.167012,-0.085379494,-6.886690017,107.610692,0,-2.326654912,1.37548384,0.075726244,21.23051071,1674,61.40000153,35.29999924,-1.9921875,0.081933449,159.8616175,159,0,0,0,192.5,0.12102133
1.6971E+18,0.101209856,0.079700001,0.018999999,-0.0027,4.869999886,6.829999924,356.1000061,-0.041792016,-0.007387979,4.46216819,3.991384557,347.2203965,-0.071466309,-6.886689692,107.6106925,0,-2.326654912,1.37548384,0.075726244,21.23051071,1674,61.40000153,35.29999924,-1.9921875,0.081933449,159.8616175,159,0,0,0,192.5,0.118524313
1.6971E+18,0.200109824,0.079700001,0.018999999,-0.0027,4.869999886,6.829999924,356.1000061,-0.036678057,-0.004573061,4.464735935,4.040729515,347.2436856,-0.122788769,-6.886689491,107.610693,0,-2.326654912,1.37548384,0.075726244,21.23051071,1674,61.40000153,35.29999924,-2.48046875,0.081933449,159.8616175,159,0,0,0,192.5,0.117626369
1.6971E+18,0.300199936,0.079700001,0.018999999,-0.0027,4.869999886,6.829999924,356.1000061,-0.041792016,-0.008475579,4.457449125,4.146428197,347.2853436,-0.105884986,-6.886689428,107.6106934,0,-2.326654912,1.37548384,0.075726244,21.23051071,1674,61.40000153,35.29999924,-2.48046875,0.081933449,159.8616175,159,0,0,0,192.5,0.117663272
1.6971E+18,0.40025984,0.079700001,0.018999999,-0.0027,4.869999886,6.829999924,356.1000061,-0.043837647,-0.008645459,4.446301301,4.249296893,347.3256621,-0.146781539,-6.886689474,107.6106936,0,-2.221467362,1.847457272,0.043794352,21.23051071,1674,61.40000153,35.29999924,-2.48046875,0.081933449,159.8616175,159,0,0,0,192.5,0.128702357
1.6971E+18,0.5,-0.0071,0.0147,-0.0328,4.900000095,7.880000114,356.7000122,-0.052019935,-0.010094914,4.422738863,4.403825019,347.3807961,-0.190385347,-6.886689634,107.6106937,0,-2.221467362,1.847457272,0.043794352,21.23051071,1674,61.40000153,35.29999924,-2.48046875,0.016324828,159.8616175,159,0,0,0,192.5,0.117589474
1.6971E+18,0.60014976,-0.0071,0.0147,-0.0328,4.900000095,7.880000114,356.7000122,-0.052019935,-0.011562076,4.399709451,4.508098884,347.4136796,-0.136281964,-6.886690011,107.6106935,0,-2.221467362,1.847457272,0.043794352,21.23051071,1674,61.40000153,35.29999924,-2.48046875,0.016324828,159.8616175,159,0,0,0,192.5,0.108906634
1.6971E+18,0.70016,-0.0071,0.0147,-0.0328,4.900000095,7.880000114,356.7000122,-0.055088263,-0.012068246,4.382855526,4.563571067,347.4258708,-0.12525146,-6.88669039,107.6106931,0,-2.221467362,1.847457272,0.043794352,21.23051071,1674,61.40000153,35.29999924,-2.48046875,0.016324828,159.8616175,159,0,0,0,192.5,0.116162606
1.6971E+18,0.800669952,-0.0071,0.0147,-0.0328,4.900000095,7.880000114,356.7000122,-0.05815659,-0.008957342,4.353008263,4.73486727,347.4233834,-0.065653018,-6.886690545,107.6106928,0,-2.221467362,1.847457272,0.043794352,21.22650146,1674,61.40000153,35.29999924,-2.48046875,0.016324828,159.8616175,159,0,0,0,192.5,0.134100944
1.6971E+18,0.900179968,-0.0071,0.0147,-0.0328,4.900000095,7.880000114,356.7000122,-0.055088263,-0.00646877,4.335917295,4.851051339,347.4467818,-0.001721347,-6.886690504,107.6106928,0,-2.221467362,1.847457272,0.043794352,21.22650146,1674,61.40000153,35.29999924,-2.48046875,0.016324828,159.8616175,159,0,0,0,192.5,0.120696053
1.6971E+18,1.003799808,-0.0071,0.0147,-0.0328,4.900000095,7.880000114,356.7000122,-0.059179406,-0.007774559,4.321942474,4.90169939,347.4551462,-0.011031908,-6.886690426,107.6106929,0,-2.221467362,1.847457272,0.043794352,21.22650146,1674,61.40000153,35.29999924,-2.48046875,0.016324828,159.8616175,159,0,0,0,192.5,0.118301541
1.6971E+18,1.101229824,-0.0071,0.0147,-0.0328,4.900000095,7.880000114,356.7000122,-0.064293246,-0.010530546,4.31728961,5.011570017,347.4891505,-0.012543874,-6.886690279,107.610693,0,-2.221467362,1.847457272,0.043794352,21.22650146,1674,61.40000153,35.29999924,-2.48046875,0.016324828,159.8616175,159,0,0,0,192.5,0.113810457
1.6971E+18,1.202209792,-0.0071,0.0147,-0.0328,4.900000095,7.880000114,356.7000122,-0.064293246,-0.010116798,4.307217659,5.183469718,347.5669721,-0.082280038,-6.886690068,107.6106933,0,-2.221467362,1.847457272,0.043794352,21.22650146,1674,61.40000153,35.29999924,-2.578125,0.016324828,159.8616175,159,0,0,0,192.5,0.107867911
1.6971E+18,1.300429824,-0.0071,0.0147,-0.0328,4.900000095,7.880000114,356.7000122,-0.069407206,-0.011651005,4.304296699,5.238686065,347.5944707,-0.068034747,-6.886689797,107.6106938,0,-2.221467362,1.847457272,0.043794352,21.22650146,1674,61.40000153,35.29999924,-2.578125,0.016324828,159.8616175,159,0,0,0,195,0.102112614
1.6971E+18,1.40052992,-0.0071,0.0147,-0.0328,4.900000095,7.880000114,356.7000122,-0.066338878,-0.006993056,4.292355316,5.411847429,347.6797547,-0.132545918,-6.886689417,107.6106944,0,-2.032249922,2.284319645,0.055507291,21.22650146,1674,61.40000153,35.29999924,-2.578125,0.016324828,159.8616175,159,0,0,0,195,0.09594319
1.6971E+18,1.500279808,0.0037,0.072999999,-0.0144,4.71999979,9.239999771,8.5,-0.06838439,-0.005937753,4.29157628,5.526755314,347.7259229,-0.082464847,-6.886689045,107.6106949,0,-2.032249922,2.284319645,0.055507291,21.22650146,1674,61.40000153,35.29999924,-2.578125,0.073093706,159.8616175,159,0,0,0,195,0.093750954
1.6971E+18,1.600279808,0.0037,0.072999999,-0.0144,4.71999979,9.239999771,8.5,-0.079635005,-0.012321436,4.293806614,5.583376404,347.7464512,-0.069799845,-6.886688684,107.6106954,0,-2.032249922,2.284319645,0.055507291,21.22650146,1674,61.40000153,35.29999924,-2.578125,0.073093706,159.8616175,159,0,0,0,195,0.095236592
1.6971E+18,1.70009984,0.0037,0.072999999,-0.0144,4.71999979,9.239999771,8.5,-0.073498349,-0.009491061,4.292360869,5.700434327,347.7788154,-0.089447139,-6.886688427,107.6106958,0,-2.032249922,2.284319645,0.055507291,21.22650146,1674,61.40000153,35.29999924,-2.578125,0.073093706,159.8616175,159,0,0,0,195,0.104466125
1.6971E+18,1.800189952,0.0037,0.072999999,-0.0144,4.71999979,9.239999771,8.5,-0.076566677,-0.010056648,4.295310872,5.821403235,347.7417223,-0.0521344,-6.886688161,107.6106961,0,-2.032249922,2.284319645,0.055507291,21.23447037,1646,61.40000153,35.29999924,-2.578125,0.073093706,159.8616175,159,0,0,0,195,0.098113559
1.6971E+18,1.900269824,0.0037,0.072999999,-0.0144,4.71999979,9.239999771,8.5,-0.077589493,-0.009436113,4.292828974,5.935834899,347.7578497,-0.100643513,-6.886687863,107.6106963,0,-2.032249922,2.284319645,0.055507291,21.23447037,1646,61.40000153,35.29999924,-2.578125,0.073093706,159.8616175,159,0,0,0,195,0.127751112
1.6971E+18,2.000310016,0.0037,0.072999999,-0.0144,4.71999979,9.239999771,8.5,-0.080657821,-0.008813539,4.290549524,6.058601485,347.7763279,-0.054093306,-6.886687512,107.6106964,0,-2.032249922,2.284319645,0.055507291,21.23447037,1646,61.40000153,35.29999924,-2.578125,0.073093706,159.8616175,159,0,0,0,195,0.105656542
1.6971E+18,2.100079872,0.0037,0.072999999,-0.0144,4.71999979,9.239999771,8.5,-0.087817292,-0.017163254,4.289386948,6.238017777,347.8142957,-0.050560184,-6.886687269,107.6106969,-1,-2.032249922,2.284319645,0.055507291,21.23447037,1646,61.40000153,35.29999924,-2.578125,0.073093706,159.8616175,159,0,0,0,195,0.103792325
1.6971E+18,2.20009984,0.0037,0.072999999,-0.0144,4.71999979,9.239999771,8.5,-0.081680636,-0.011232194,4.286644091,6.345527377,347.842997,-0.023162083,-6.886687184,107.6106971,-1,-2.032249922,2.284319645,0.055507291,21.23447037,1646,61.40000153,35.29999924,-2.28515625,0.073093706,159.8616175,159,0,0,0,195,0.094098106
1.6971E+18,2.300109824,0.0037,0.072999999,-0.0144,4.71999979,9.239999771,8.5,-0.086794596,-0.012760953,4.283420742,6.39109845,347.855653,-0.089677582,-6.886687008,107.6106974,-1,-2.032249922,2.284319645,0.055507291,21.23447037,1646,61.40000153,35.29999924,-2.28515625,0.073093706,159.8616175,159,0,0,0,200,0.096369609
1.6971E+18,2.400109824,0.0037,0.072999999,-0.0144,4.71999979,9.239999771,8.5,-0.090885739,-0.010773891,4.279675472,6.500734598,347.8876618,-0.020641331,-6.886686826,107.6106978,-1,-1.9653127,2.705443411,0.054632609,21.23447037,1646,61.40000153,35.29999924,-2.28515625,0.073093706,159.8616175,159,0,0,0,200,0.096705824
1.6971E+18,2.500279808,0.0033,-0.0044,-0.0239,4.849999905,10.17000008,9.300000191,-0.093954067,-0.011454519,4.267326206,6.547450735,347.9061673,-0.133007283,-6.886686635,107.6106981,-1,-1.9653127,2.705443411,0.054632609,21.23447037,1646,61.40000153,35.29999924,-2.28515625,0.0055,159.8616175,159,0,0,0,200,0.09765707
1.6971E+18,2.600189952,0.0033,-0.0044,-0.0239,4.849999905,10.17000008,9.300000191,-0.093954067,-0.011117027,4.259895889,6.58144389,347.9282537,-0.086335885,-6.886686437,107.6106984,-1,-1.9653127,2.705443411,0.054632609,21.23447037,1646,61.40000153,35.29999924,-2.28515625,0.0055,159.8616175,159,0,0,0,200,0.097289421
1.6971E+18,2.700609792,0.0033,-0.0044,-0.0239,4.849999905,10.17000008,9.300000191,-0.098045211,-0.012479392,4.247880618,6.59787541,347.8868691,-0.152466765,-6.886686231,107.6106988,-1,-1.9653127,2.705443411,0.054632609,21.23447037,1646,61.40000153,35.29999924,-2.28515625,0.0055,159.8616175,159,0,0,0,200,0.094752766
1.6971E+18,2.800219904,0.0033,-0.0044,-0.0239,4.849999905,10.17000008,9.300000191,-0.099068027,-0.011863071,4.24458338,6.601989269,347.9030785,-0.103287183,-6.886686017,107.6106991,-1,-1.9653127,2.705443411,0.054632609,21.23455048,1700,61.40000153,35.29999924,-2.28515625,0.0055,159.8616175,159,0,0,0,200,0.122210391
1.6971E+18,2.900059904,0.0033,-0.0044,-0.0239,4.849999905,10.17000008,9.300000191,-0.094976883,-0.010803493,4.25299518,6.600523023,347.9688729,0.054150878,-6.886685795,107.6106995,-1,-1.9653127,2.705443411,0.054632609,21.23455048,1700,61.40000153,35.29999924,-2.28515625,0.0055,159.8616175,159,0,0,0,200,0.098362304
1.6971E+18,3.005199872,0.0033,-0.0044,-0.0239,4.849999905,10.17000008,9.300000191,-0.093954067,-0.008136201,4.265078788,6.587334072,348.0174466,0.062668907,-6.886685565,107.6106998,-1,-1.9653127,2.705443411,0.054632609,21.23455048,1700,61.40000153,35.29999924,-2.28515625,0.0055,159.8616175,159,0,0,0,200,0.075238585
1.6971E+18,3.100299776,0.0033,-0.0044,-0.0239,4.849999905,10.17000008,9.300000191,-0.094976883,-0.008297669,4.272560785,6.573560416,348.0393416,0.103035926,-6.886685328,107.6107001,-1,-1.9653127,2.705443411,0.054632609,21.23455048,1700,61.40000153,35.29999924,-2.28515625,0.0055,159.8616175,159,0,0,0,200,0.079698227
1.6971E+18,3.200109824,0.0033,-0.0044,-0.0239,4.849999905,10.17000008,9.300000191,-0.099068027,-0.009275889,4.277149583,6.544121891,348.0758606,0.010504799,-6.886685082,107.6107005,-1,-1.9653127,2.705443411,0.054632609,21.23455048,1700,61.40000153,35.29999924,-2.96875,0.0055,159.8616175,159,0,0,0,200,0.089274913
1.6971E+18,3.300219904,0.0033,-0.0044,-0.0239,4.849999905,10.17000008,9.300000191,-0.098045211,-0.011056271,4.273889503,6.457842317,348.120006,-0.05583499,-6.886684829,107.6107008,-1,-1.9653127,2.705443411,0.054632609,21.23455048,1700,61.40000153,35.29999924,-2.96875,0.0055,159.8616175,159,0,0,0,202.5,0.074391216
1.6971E+18,3.40020992,0.0033,-0.0044,-0.0239,4.849999905,10.17000008,9.300000191,-0.092931252,-0.008020621,4.257546394,6.376379187,348.1431311,-0.13195765,-6.886684568,107.6107011,-1,-1.751623066,3.283035856,0.091671484,21.23455048,1700,61.40000153,35.29999924,-2.96875,0.0055,159.8616175,159,0,0,0,202.5,0.088554643
1.6971E+18,3.500150016,-0.064099997,0.0139,0.0032,4.849999905,10.17000008,9.300000191,-0.089862924,-0.001489679,4.248157808,6.325881477,348.1557597,-0.211914626,-6.8866843,107.6107015,-1,-1.751623066,3.283035856,0.091671484,21.23455048,1700,61.40000153,35.29999924,-2.96875,0.065589783,159.8616175,159,0,0,0,202.5,0.078432634
1.6971E+18,3.600129792,-0.064099997,0.0139,0.0032,4.610000134,10.36999989,10.5,-0.093954067,-0.003931985,4.216327504,6.145657105,348.1860738,-0.257047504,-6.886684024,107.6107018,-1,-1.751623066,3.283035856,0.091671484,21.23455048,1700,61.40000153,35.29999924,-2.96875,0.065589783,159.8616175,159,0,0,0,202.5,0.08716058
1.6971E+18,3.700119808,-0.064099997,0.0139,0.0032,4.610000134,10.36999989,10.5,-0.089862924,-0.006012076,4.193454411,6.013727444,348.1184206,-0.233024943,-6.88668374,107.6107022,-1,-1.751623066,3.283035856,0.091671484,21.23455048,1700,61.40000153,35.29999924,-2.96875,0.065589783,162.9333718,159,0,0,0,202.5,0.300000012
1.6971E+18,3.800119808,-0.064099997,0.0139,0.0032,4.610000134,10.36999989,10.5,-0.090885739,-0.006385732,4.182979275,5.945612576,348.1327713,-0.236060847,-6.886683449,107.6107025,-1,-1.751623066,3.283035856,0.091671484,21.19524193,2126,61.40000153,35.29999924,-2.96875,0.065589783,162.9333718,159,0,0,0,205,0.300000012
1.6971E+18,3.900349952,-0.064099997,0.0139,0.0032,4.610000134,10.36999989,10.5,-0.088840108,-0.005642549,4.13688799,5.742225962,348.2238502,-0.456411391,-6.886683149,107.6107028,-1,-1.751623066,3.283035856,0.091671484,21.19524193,2126,61.40000153,35.29999924,-2.96875,0.065589783,162.9333718,162,0,0,0,205,0.300000012
1.6971E+18,4.003609856,-0.064099997,0.0139,0.0032,4.610000134,10.36999989,10.5,-0.087817292,-0.001738569,4.100235689,5.614024059,348.3263277,-0.52773418,-6.886682842,107.6107032,-1,-1.751623066,3.283035856,0.091671484,21.19524193,2126,61.40000153,35.29999924,-2.96875,0.065589783,162.9333718,162,0,0,0,205,0.300000012
1.6971E+18,4.100759808,-0.064099997,0.0139,0.0032,4.610000134,10.36999989,10.5,-0.08577178,-0.005002215,4.073215423,5.548043426,348.3847691,-0.651024555,-6.886682526,107.6107035,-1,-1.751623066,3.283035856,0.091671484,21.19524193,2126,61.40000153,35.29999924,-2.96875,0.065589783,162.9333718,162,0,0,0,205,0.300000012
1.6971E+18,4.200279808,-0.064099997,0.0139,0.0032,4.610000134,10.36999989,10.5,-0.083726149,-0.002291178,4.009849944,5.423723465,348.5080209,-0.82573214,-6.886682202,107.6107038,-1,-1.751623066,3.283035856,0.091671484,21.19524193,2126,61.40000153,35.29999924,-2.7734375,0.065589783,165.6789313,162,0,0,0,205,0.300000012
1.6971E+18,4.300169984,-0.064099997,0.0139,0.0032,4.610000134,10.36999989,10.5,-0.080657821,0.000527917,3.936638023,5.30623246,348.6506256,-0.907315606,-6.886681869,107.6107042,-1,-1.751623066,3.283035856,0.091671484,21.19524193,2126,61.40000153,35.29999924,-2.7734375,0.065589783,165.6789313,162,0,0,0,210,0.300000012
1.6971E+18,4.400169984,-0.064099997,0.0139,0.0032,4.610000134,10.36999989,10.5,-0.076566677,0.002296514,3.847199593,5.191265208,348.8083463,-1.061931075,-6.886681528,107.6107045,-1,-1.94301353,3.274043228,0.066970076,21.19524193,2126,61.40000153,35.29999924,-2.7734375,0.065589783,165.6789313,165,0,0,0,210,0.300000012
1.6971E+18,4.50032,-0.0239,0.0495,0.0147,4.090000153,9.140000343,10.89999962,-0.077589493,0.002168503,3.751562612,5.081354433,348.9851466,-1.102372529,-6.886681179,107.6107048,-1,-1.94301353,3.274043228,0.066970076,21.19524193,2126,61.40000153,35.29999924,-2.7734375,0.054967809,165.6789313,165,0,0,0,210,0.300000012
1.6971E+18,4.600349952,-0.0239,0.0495,0.0147,4.090000153,9.140000343,10.89999962,-0.078612309,0.001072536,3.616303253,4.927191907,349.2917863,-1.056386846,-6.886680822,107.6107052,-1,-1.94301353,3.274043228,0.066970076,21.19524193,2126,61.40000153,35.29999924,-2.7734375,0.054967809,165.6789313,165,0,0,0,210,0.300000012
1.6971E+18,4.700859904,-0.0239,0.0495,0.0147,4.090000153,9.140000343,10.89999962,-0.075543981,0.00474575,3.571630592,4.87504686,349.3989926,-1.076755725,-6.886680457,107.6107055,-1,-1.94301353,3.274043228,0.066970076,21.19524193,2126,61.40000153,35.29999924,-2.7734375,0.054967809,167.0362732,165,0,0,0,210,0.300000012
1.6971E+18,4.800329984,-0.0239,0.0495,0.0147,4.090000153,9.140000343,10.89999962,-0.074521165,0.004597061,3.490328267,4.784716637,349.62751,-0.965709282,-6.886680084,107.6107058,-1,-1.94301353,3.274043228,0.066970076,21.05373001,3926,61.40000153,35.29999924,-2.7734375,0.054967809,167.0362732,165,0,0,0,217.5,0.300000012
1.6971E+18,4.900299776,-0.0239,0.0495,0.0147,4.090000153,9.140000343,10.89999962,-0.071452837,0.003698239,3.383353614,4.65666721,349.9887096,-0.888596574,-6.886679702,107.6107061,-1,-1.94301353,3.274043228,0.066970076,21.05373001,3926,61.40000153,35.29999924,-2.7734375,0.054967809,167.0362732,167,0,0,0,217.5,0.300000012
1.6971E+18,5.00032,-0.0239,0.0495,0.0147,4.090000153,9.140000343,10.89999962,-0.074521165,0.001280332,3.32403024,4.582598094,350.2501105,-0.740038765,-6.886679314,107.6107065,-1,-1.94301353,3.274043228,0.066970076,21.05373001,3926,61.40000153,35.29999924,-2.7734375,0.054967809,167.0362732,167,0,0,0,217.5,0.300000012
1.6971E+18,5.100279808,-0.0239,0.0495,0.0147,4.090000153,9.140000343,10.89999962,-0.074521165,0.003898843,3.294825554,4.550682369,350.3846241,-0.770248959,-6.886678918,107.6107068,-1,-1.94301353,3.274043228,0.066970076,21.05373001,3926,61.40000153,35.29999924,-2.7734375,0.054967809,167.0362732,167,0,0,0,217.5,0.300000012
1.6971E+18,5.200829952,-0.0239,0.0495,0.0147,4.090000153,9.140000343,10.89999962,-0.067361693,0.006985324,3.25658272,4.462418473,350.6663347,-0.600214259,-6.886678515,107.6107071,-1,-1.94301353,3.274043228,0.066970076,21.05373001,3926,61.40000153,35.29999924,-1.6015625,0.054967809,168.5714417,167,0,0,0,217.5,0.300000012
1.6971E+18,5.300329984,-0.0239,0.0495,0.0147,4.090000153,9.140000343,10.89999962,-0.071452837,0.004183194,3.238041523,4.375427772,350.9710336,-0.364038681,-6.886678106,107.6107074,-1,-1.94301353,3.274043228,0.066970076,21.05373001,3926,61.40000153,35.29999924,-1.6015625,0.054967809,168.5714417,168,0,0,0,227.5,0.300000012
1.6971E+18,5.400239872,-0.0239,0.0495,0.0147,4.090000153,9.140000343,10.89999962,-0.06327055,0.005446181,3.246887261,4.239679379,351.4600772,-0.082423779,-6.88667769,107.6107077,-1,-2.164393333,3.2910824,-0.00128733,21.05373001,3926,61.40000153,35.29999924,-1.6015625,0.054967809,168.5714417,168,0,0,0,227.5,0.300000012
1.6971E+18,5.50025984,-0.0132,0.090099998,0.022399999,3.630000114,7.769999981,11.5,-0.066338878,0.002505687,3.279582449,4.153433974,351.7960743,0.096111086,-6.886677267,107.6107081,-1,-2.164393333,3.2910824,-0.00128733,21.05373001,3926,61.40000153,35.29999924,-1.6015625,0.09106179,168.5714417,168,0,0,0,227.5,0.295800924
1.6971E+18,5.600359936,-0.0132,0.090099998,0.022399999,3.630000114,7.769999981,11.5,-0.065316062,0.003814273,3.322701949,4.064842489,352.1410918,0.238082247,-6.886676838,107.6107084,-1,-2.164393333,3.2910824,-0.00128733,21.05373001,3926,61.40000153,35.29999924,-1.6015625,0.09106179,168.5714417,168,0,0,0,227.5,0.275797457
1.6971E+18,5.700399872,-0.0132,0.090099998,0.022399999,3.630000114,7.769999981,11.5,-0.060202103,0.007229252,3.378080169,3.989136285,352.4946103,0.368814471,-6.886676397,107.6107087,-1,-2.164393333,3.2910824,-0.00128733,21.05373001,3926,61.40000153,35.29999924,-1.6015625,0.09106179,168.442261,168,0,0,0,227.5,0.254938424
1.6971E+18,5.800539904,-0.0132,0.090099998,0.022399999,3.630000114,7.769999981,11.5,-0.061224918,0.006041434,3.448258801,3.911271502,352.8375231,0.515699155,-6.886675954,107.610709,-1,-2.164393333,3.2910824,-0.00128733,21.09717178,3506,61.40000153,35.29999924,-1.6015625,0.09106179,168.442261,168,0,0,0,235,0.233862057
1.6971E+18,5.900249856,-0.0132,0.090099998,0.022399999,3.630000114,7.769999981,11.5,-0.064293246,0.004010297,3.518653547,3.835448699,353.1821032,0.459400047,-6.886675504,107.6107094,-1,-2.164393333,3.2910824,-0.00128733,21.09717178,3506,61.40000153,35.29999924,-1.6015625,0.09106179,168.442261,168,0,0,0,235,0.220958754
1.6971E+18,6.000329984,-0.0132,0.090099998,0.022399999,3.630000114,7.769999981,11.5,-0.064293246,0.003480271,3.563508795,3.79991968,353.3560607,0.671764533,-6.886675048,107.6107097,-1,-2.164393333,3.2910824,-0.00128733,21.09717178,3506,61.40000153,35.29999924,-1.6015625,0.09106179,168.442261,168,0,0,0,235,0.203062788
1.6971E+18,6.100219904,-0.0132,0.090099998,0.022399999,3.630000114,7.769999981,11.5,-0.065316062,0.002168445,3.709790196,3.689573686,353.8668353,0.819491306,-6.886674586,107.61071,-1,-2.164393333,3.2910824,-0.00128733,21.09717178,3506,61.40000153,35.29999924,-1.6015625,0.09106179,168.442261,168,0,0,0,235,0.186485708
1.6971E+18,6.20281984,-0.0132,0.090099998,0.022399999,3.630000114,7.769999981,11.5,-0.064293246,0.000950091,3.814818753,3.644252042,354.2042811,0.883961274,-6.886674117,107.6107103,-1,-2.164393333,3.2910824,-0.00128733,21.09717178,3506,61.40000153,35.29999924,-2.48046875,0.09106179,167.8956763,168,0,0,0,235,0.170017973
1.6971E+18,6.30025984,-0.0132,0.090099998,0.022399999,3.630000114,7.769999981,11.5,-0.05815659,0.003775252,3.933201977,3.59499464,354.5439684,1.002294955,-6.886673642,107.6107107,-1,-2.164393333,3.2910824,-0.00128733,21.09717178,3506,61.40000153,35.29999924,-2.48046875,0.09106179,167.8956763,168,0,0,0,245,0.154807612
1.6971E+18,6.400359936,-0.0132,0.090099998,0.022399999,3.630000114,7.769999981,11.5,-0.059179406,0.001254144,4.061234747,3.552328938,354.8842023,1.0611609,-6.886673161,107.610711,-1,-2.407447122,3.258658425,0.047069986,21.09717178,3506,61.40000153,35.29999924,-2.48046875,0.09106179,167.8956763,168,0,0,0,245,0.136926681
1.6971E+18,6.50048,-0.0207,0.127199993,-0.0054,4.429999828,7.539999962,12.60000038,-0.056110959,0.003854876,4.178448135,3.520710904,355.2212654,0.959512012,-6.886672674,107.6107113,-1,-2.407447122,3.258658425,0.047069986,21.09717178,3506,61.40000153,35.29999924,-2.48046875,0.128873303,167.8956763,168,0,0,0,245,0.119696304
1.6971E+18,6.600219904,-0.0207,0.127199993,-0.0054,4.429999828,7.539999962,12.60000038,-0.054065447,0.004840672,4.233869493,3.51043437,355.3875146,0.904670982,-6.88667218,107.6107117,-1,-2.407447122,3.258658425,0.047069986,21.09717178,3506,61.40000153,35.29999924,-2.48046875,0.128873303,167.8956763,168,0,0,0,245,0.104111478
1.6971E+18,6.70032,-0.0207,0.127199993,-0.0054,4.429999828,7.539999962,12.60000038,-0.055088263,0.004093339,4.350097126,3.474031925,355.7120584,0.971109043,-6.88667195,107.6107116,0,-2.407447122,3.258658425,0.047069986,21.09717178,3506,61.40000153,35.29999924,-2.48046875,0.128873303,166.222943,168,0,0,0,245,0.164124623
1.6971E+18,6.801659904,-0.0207,0.127199993,-0.0054,4.429999828,7.539999962,12.60000038,-0.053042631,0.003784799,4.452123574,3.453130555,356.0273632,0.852123496,-6.886671737,107.6107115,0,-2.407447122,3.258658425,0.047069986,21.10111046,3506,61.40000153,35.29999924,-2.48046875,0.128873303,166.222943,167,0,0,0,255,0.084579527
1.6971E+18,6.900139776,-0.0207,0.127199993,-0.0054,4.429999828,7.539999962,12.60000038,-0.056110959,0.004080961,4.539996243,3.412368239,356.3361897,0.670949353,-6.886671545,107.6107116,0,-2.407447122,3.258658425,0.047069986,21.10111046,3380,61.40000153,35.29999924,-2.48046875,0.128873303,166.222943,167,0,0,0,255,0.07250993
1.6971E+18,7.000619776,-0.0207,0.127199993,-0.0054,4.429999828,7.539999962,12.60000038,-0.054065447,0.005288744,4.60892389,3.364103212,356.6373078,0.477760312,-6.886671355,107.6107117,0,-2.407447122,3.258658425,0.047069986,21.10111046,3380,61.40000153,35.29999924,-2.48046875,0.128873303,166.222943,167,0,0,0,255,0.009543115
1.6971E+18,7.102219776,-0.0207,0.127199993,-0.0054,4.429999828,7.539999962,12.60000038,-0.049974303,0.003790041,4.688665793,3.284664979,357.0804566,0.268059163,-6.886671243,107.6107117,0,-2.407447122,3.258658425,0.047069986,21.10111046,3380,61.40000153,35.29999924,-2.48046875,0.128873303,166.222943,167,0,0,0,255,0.109201185
1.6971E+18,7.20014976,-0.0207,0.127199993,-0.0054,4.429999828,7.539999962,12.60000038,-0.052019935,0.005045809,4.708128465,3.258490164,357.2230886,0.262265132,-6.88667105,107.6107117,0,-2.407447122,3.258658425,0.047069986,21.10111046,3380,61.40000153,35.29999924,-2.3828125,0.128873303,166.0752209,167,0,0,0,255,0.031282336
1.6971E+18,7.300199936,-0.0207,0.127199993,-0.0054,4.429999828,7.539999962,12.60000038,-0.044860344,0.004665943,4.735790241,3.207257836,357.5035417,0.067842317,-6.886670822,107.6107119,0,-2.407447122,3.258658425,0.047069986,21.10111046,3380,61.40000153,35.29999924,-2.3828125,0.128873303,166.0752209,167,0,0,0,262.5,0.017608358
1.6971E+18,7.40014976,-0.0207,0.127199993,-0.0054,4.429999828,7.539999962,12.60000038,-0.052019935,0.002679446,4.746865457,3.153720859,357.7807694,-0.058296183,-6.886670535,107.6107123,0,-2.652449891,3.288547394,0.020801622,21.10111046,3380,61.40000153,35.29999924,-2.3828125,0.128873303,166.0752209,167,0,0,0,262.5,0.069694467
1.6971E+18,7.50032,0.129500002,0.103599995,0.022500001,5.320000172,6.809999943,14.19999981,-0.044860344,0.006071339,4.720594331,3.089751028,358.17816,-0.441355758,-6.8866701,107.6107128,0,-2.652449891,3.288547394,0.020801622,21.10111046,3380,61.40000153,35.29999924,-2.3828125,0.165840916,166.0752209,167,0,0,0,262.5,0.060313061
1.6971E+18,7.600359936,0.129500002,0.103599995,0.022500001,5.320000172,6.809999943,14.19999981,-0.047928791,0.004068065,4.681516083,3.054114165,358.4299938,-0.56890769,-6.886669535,107.6107134,0,-2.652449891,3.288547394,0.020801622,21.10111046,3380,61.40000153,35.29999924,-2.3828125,0.165840916,166.0752209,167,0,0,0,262.5,0.01419
1.6971E+18,7.701369856,0.129500002,0.103599995,0.022500001,5.320000172,6.809999943,14.19999981,-0.047928791,0.00174106,4.652993267,3.039447436,358.5537649,-0.70208791,-6.886668967,107.6107141,0,-2.652449891,3.288547394,0.020801622,21.10111046,3380,61.40000153,35.29999924,-2.3828125,0.165840916,164.9564737,167,0,0,0,262.5,0.022233211
1.6971E+18,7.800169984,0.129500002,0.103599995,0.022500001,5.320000172,6.809999943,14.19999981,-0.041792016,0.00778077,4.573791223,2.999570933,358.9267457,-0.704096737,-6.886668524,107.6107149,0,-2.652449891,3.288547394,0.020801622,21.09311104,3500,61.40000153,35.29999924,-2.3828125,0.165840916,164.9564737,167,0,0,0,272.5,0.03337343
1.6971E+18,7.900219904,0.129500002,0.103599995,0.022500001,5.320000172,6.809999943,14.19999981,-0.041792016,0.008005262,4.517523346,2.983866983,359.174452,-0.67787478,-6.886668204,107.6107156,0,-2.652449891,3.288547394,0.020801622,21.09311104,3500,61.40000153,35.29999924,-2.3828125,0.165840916,164.9564737,165,0,0,0,272.5,0.045594737
1.6971E+18,8.00032,0.129500002,0.103599995,0.022500001,5.320000172,6.809999943,14.19999981,-0.038723688,0.009077825,4.469862884,2.955621998,359.4251651,-0.578265524,-6.886667955,107.6107163,0,-2.652449891,3.288547394,0.020801622,21.09311104,3500,61.40000153,35.29999924,-2.3828125,0.165840916,164.9564737,165,0,0,0,272.5,0.05780511
1.6971E+18,8.10032,0.129500002,0.103599995,0.022500001,5.320000172,6.809999943,14.19999981,-0.039746504,0.009560021,4.42362553,2.923070957,359.6757415,-0.649571176,-6.886667431,107.6107171,0,-2.652449891,3.288547394,0.020801622,21.09311104,3500,61.40000153,35.29999924,-2.3828125,0.165840916,164.9564737,165,0,0,0,272.5,0.071543485
1.6971E+18,8.200409856,0.129500002,0.103599995,0.022500001,5.320000172,6.809999943,14.19999981,-0.0407692,0.005840878,4.373978183,2.886397301,359.9211243,-0.661960483,-6.886667411,107.6107175,0,-2.652449891,3.288547394,0.020801622,21.09311104,3500,61.40000153,35.29999924,-2.08984375,0.165840916,163.2962271,165,0,0,0,272.5,0.084017642
1.6971E+18,8.30016,0.129500002,0.103599995,0.022500001,5.320000172,6.809999943,14.19999981,-0.039746504,0.00698137,4.317218711,2.840529605,360.1637464,-0.727256683,-6.886667142,107.610718,0,-2.652449891,3.288547394,0.020801622,21.09311104,3500,61.40000153,35.29999924,-2.08984375,0.165840916,163.2962271,164,0,0,0,282.5,0.094209351
1.6971E+18,8.40020992,0.129500002,0.103599995,0.022500001,5.320000172,6.809999943,14.19999981,-0.038723688,0.006945951,4.258093513,2.796856793,0.220363091,-0.679248345,-6.886667041,107.6107184,0,-1.920177506,4.120595732,0.017887367,21.09311104,3500,61.40000153,35.29999924,-2.08984375,0.165840916,163.2962271,164,0,0,0,282.5,-0.105236135
1.6971E+18,8.500279808,0.061099999,0.057500001,0.0151,4.880000114,6.840000153,14.5,-0.039746504,0.004898044,4.200642561,2.749890587,0.453046137,-0.749747518,-6.886666945,107.610719,0,-1.920177506,4.120595732,0.017887367,21.09311104,3500,61.40000153,35.29999924,-2.08984375,0.08390149,163.2962271,164,0,0,0,282.5,-0.033664845
1.6971E+18,8.600199936,0.061099999,0.057500001,0.0151,4.880000114,6.840000153,14.5,-0.029518585,0.008972759,4.135923164,2.702432145,0.678911787,-0.788643553,-6.886666833,107.6107195,0,-1.920177506,4.120595732,0.017887367,21.09311104,3500,61.40000153,35.29999924,-2.08984375,0.08390149,163.2962271,164,0,0,0,282.5,-0.115725525
1.6971E+18,8.700349952,0.061099999,0.057500001,0.0151,4.880000114,6.840000153,14.5,-0.032586913,0.007830717,4.085375482,2.650306958,0.897572097,-0.6281757,-6.886666691,107.6107198,0,-1.920177506,4.120595732,0.017887367,21.09311104,3500,61.40000153,35.29999924,-2.08984375,0.08390149,163.3738871,164,0,0,0,282.5,-0.124291852
1.6971E+18,8.800269824,0.061099999,0.057500001,0.0151,4.880000114,6.840000153,14.5,-0.038723688,0.003645226,4.040359644,2.605416474,1.107066929,-0.504664887,-6.886666561,107.6107201,0,-1.920177506,4.120595732,0.017887367,21.09311104,3452,61.40000153,35.29999924,-2.08984375,0.08390149,163.3738871,164,0,0,0,290,-0.132342726
1.6971E+18,8.900179968,0.061099999,0.057500001,0.0151,4.880000114,6.840000153,14.5,-0.029518585,0.009313236,4.00657278,2.550870892,1.302746036,-0.35310916,-6.88666652,107.6107202,0,-1.920177506,4.120595732,0.017887367,21.09311104,3452,61.40000153,35.29999924,-2.08984375,0.08390149,163.3738871,164,0,0,0,290,-0.139151275
1.6971E+18,9.000179968,0.061099999,0.057500001,0.0151,4.880000114,6.840000153,14.5,-0.027473073,0.008231876,3.981921656,2.495829443,1.489869835,-0.284131596,-6.886666548,107.6107201,0,-1.920177506,4.120595732,0.017887367,21.09311104,3452,61.40000153,35.29999924,-2.08984375,0.08390149,163.3738871,164,0,0,0,290,-0.143408939
1.6971E+18,9.10020992,0.061099999,0.057500001,0.0151,4.880000114,6.840000153,14.5,-0.033609729,0.006062047,3.979489302,2.470802041,1.582281118,-0.128353618,-6.886666587,107.6107201,0,-1.920177506,4.120595732,0.017887367,21.09311104,3452,61.40000153,35.29999924,-2.08984375,0.08390149,163.3738871,164,0,0,0,290,-0.149343014
1.6971E+18,9.200329984,0.061099999,0.057500001,0.0151,4.880000114,6.840000153,14.5,-0.028495889,0.005015094,3.981877664,2.424020771,1.754016491,0.030245861,-6.886666762,107.61072,0,-1.920177506,4.120595732,0.017887367,21.09311104,3452,61.40000153,35.29999924,-1.30859375,0.08390149,163.4100199,164,0,0,0,290,-0.11607857
1.6971E+18,9.300489984,0.061099999,0.057500001,0.0151,4.880000114,6.840000153,14.5,-0.028495889,0.004666466,4.000586072,2.379631066,1.916821239,0.149209662,-6.886667531,107.6107189,0,-1.920177506,4.120595732,0.017887367,21.09311104,3452,61.40000153,35.29999924,-1.30859375,0.08390149,163.4100199,164,0,0,0,300,-0.156394973
1.6971E+18,9.400349952,0.061099999,0.057500001,0.0151,4.880000114,6.840000153,14.5,-0.024404745,0.010254912,4.03317363,2.343264284,2.076772937,0.354581305,-6.886668145,107.6107178,0,-1.482360627,4.557182351,0.042357528,21.09311104,3452,61.40000153,35.29999924,-1.30859375,0.08390149,163.4100199,164,0,0,0,300,-0.160962954
1.6971E+18,9.500179968,0.0255,0.028999999,0.020100001,4.730000019,5.789999962,14.80000019,-0.027473073,0.005230832,4.06489844,2.313660256,2.22482276,0.359998924,-6.8866688,107.6107169,0,-1.482360627,4.557182351,0.042357528,21.09311104,3452,61.40000153,35.29999924,-1.30859375,0.038616705,163.4100199,164,0,0,0,300,-0.167819321
1.6971E+18,9.60014976,0.0255,0.028999999,0.020100001,4.730000019,5.789999962,14.80000019,-0.026450257,0.007851421,4.111323719,2.279221845,2.408942742,0.391646054,-6.886669709,107.6107161,0,-1.482360627,4.557182351,0.042357528,21.09311104,3452,61.40000153,35.29999924,-1.30859375,0.038616705,163.4100199,164,0,0,0,300,-0.170461074
1.6971E+18,9.700359936,0.0255,0.028999999,0.020100001,4.730000019,5.789999962,14.80000019,-0.014176826,0.013500482,4.133644567,2.259624422,2.467286126,0.400268363,-6.88667,107.610716,0,-1.482360627,4.557182351,0.042357528,21.09311104,3452,61.40000153,35.29999924,-1.30859375,0.038616705,163.0362085,164,0,0,0,300,-0.194095135
1.6971E+18,9.800219904,0.0255,0.028999999,0.020100001,4.730000019,5.789999962,14.80000019,-0.01826797,0.008396805,4.171233933,2.232863621,2.558610218,0.512098621,-6.886670156,107.6107159,0,-1.482360627,4.557182351,0.042357528,21.10491943,3306,61.40000153,35.29999924,-1.30859375,0.038616705,163.0362085,164,0,0,0,310,-0.146701664
1.6971E+18,9.900299776,0.0255,0.028999999,0.020100001,4.730000019,5.789999962,14.80000019,-0.01826797,0.007258793,4.209132948,2.200210075,2.639499962,0.490447204,-6.88666973,107.6107162,-1,-1.482360627,4.557182351,0.042357528,21.10491943,3306,61.40000153,35.29999924,-1.30859375,0.038616705,163.0362085,164,0,0,0,310,-0.182390541
1.6971E+18,10.00024986,0.0255,0.028999999,0.020100001,4.730000019,5.789999962,14.80000019,-0.015199642,0.009331468,4.292719636,2.121968373,2.777828912,0.526036284,-6.886669304,107.6107165,-1,-1.482360627,4.557182351,0.042357528,21.10491943,3306,61.40000153,35.29999924,-1.30859375,0.038616705,163.0362085,164,0,0,0,310,-0.148392767
1.6971E+18,10.1003799,0.0255,0.028999999,0.020100001,4.730000019,5.789999962,14.80000019,-0.013154011,0.01083228,4.32415914,2.096668265,2.822754205,0.586709091,-6.886668877,107.6107168,-1,-1.482360627,4.557182351,0.042357528,21.10491943,3306,61.40000153,35.29999924,-2.48046875,0.038616705,163.0362085,164,0,0,0,310,-0.194223031
1.6971E+18,10.20016,0.0255,0.028999999,0.020100001,4.730000019,5.789999962,14.80000019,-0.009062986,0.012146702,4.386576023,2.035116267,2.909776939,0.668636108,-6.886668449,107.6107171,-1,-1.482360627,4.557182351,0.042357528,21.10491943,3306,61.40000153,35.29999924,-2.48046875,0.038616705,164.1724382,164,0,0,0,310,-0.159107834
1.6971E+18,10.30032,0.0255,0.028999999,0.020100001,4.730000019,5.789999962,14.80000019,-0.009062986,0.011773542,4.471618706,1.938556529,3.027673906,0.457223101,-6.886668016,107.6107174,-1,-1.482360627,4.557182351,0.042357528,21.10491943,3306,61.40000153,35.29999924,-2.48046875,0.038616705,164.1724382,164,0,0,0,320,-0.180297941
1.6971E+18,10.40032,0.0255,0.028999999,0.020100001,4.730000019,5.789999962,14.80000019,-0.003949027,0.014903483,4.498672286,1.902026593,3.064115217,0.519164565,-6.886667587,107.6107177,-1,-1.01783227,5.091435694,0.060295687,21.10491943,3306,61.5,35.29999924,-2.48046875,0.038616705,164.1724382,164,0,0,0,320,-0.198542476
1.6971E+18,10.5002199,0.0319,-0.01,0.030400001,5.389999866,5.25,15.30000019,-0.008040171,0.01178151,4.535023479,1.820868202,3.124554825,0.318995721,-6.886667157,107.610718,-1,-1.01783227,5.091435694,0.060295687,21.10491943,3306,61.5,35.29999924,-2.48046875,0.033430674,164.1724382,164,0,0,0,320,-0.167782292
1.6971E+18,10.60026982,0.0319,-0.01,0.030400001,5.389999866,5.25,15.30000019,-0.004971843,0.010305065,4.573262042,1.694872287,3.190597389,0.125036186,-6.88666651,107.6107184,-1,-1.01783227,5.091435694,0.060295687,21.10491943,3306,61.5,35.29999924,-2.48046875,0.033430674,164.1724382,164,0,0,0,320,-0.19074741
1.6971E+18,10.70112998,0.0319,-0.01,0.030400001,5.389999866,5.25,15.30000019,-0.002926211,0.014458627,4.582964975,1.60039297,3.174151561,0.02792396,-6.886666293,107.6107186,-1,-1.01783227,5.091435694,0.060295687,21.10491943,3306,61.5,35.29999924,-2.48046875,0.033430674,165.8305348,164,0,0,0,320,-0.176752388
1.6971E+18,10.80036992,0.0319,-0.01,0.030400001,5.389999866,5.25,15.30000019,-0.003949027,0.012838525,4.583090971,1.515057828,3.196364352,-0.011401047,-6.88666586,107.6107189,-1,-1.01783227,5.091435694,0.060295687,21.06967163,3726,61.5,35.29999924,-2.48046875,0.033430674,165.8305348,165,0,0,0,327.5,-0.152129248
1.6971E+18,10.9003799,0.0319,-0.01,0.030400001,5.389999866,5.25,15.30000019,0.006278892,0.013176901,4.573824537,1.434007066,3.215708716,-0.155291226,-6.886665424,107.6107192,-1,-1.01783227,5.091435694,0.060295687,21.06967163,3726,61.5,35.29999924,-2.48046875,0.033430674,165.8305348,165,0,0,0,327.5,-0.168703333
1.6971E+18,11.00543002,0.0319,-0.01,0.030400001,5.389999866,5.25,15.30000019,0.006278892,0.012010733,4.567470093,1.401417052,3.225921185,-0.132423099,-6.886664987,107.6107195,-1,-1.01783227,5.091435694,0.060295687,21.06967163,3726,61.5,35.29999924,-2.48046875,0.033430674,165.8305348,165,0,0,0,327.5,-0.168523178
1.6971E+18,11.10064998,0.0319,-0.01,0.030400001,5.389999866,5.25,15.30000019,0.006278892,0.015057877,4.532733351,1.319354376,3.254452756,-0.2066399,-6.886664548,107.6107198,-1,-1.01783227,5.091435694,0.060295687,21.06967163,3726,61.5,35.29999924,-2.48046875,0.033430674,165.8305348,165,0,0,0,327.5,-0.169484928
1.6971E+18,11.20027981,0.0319,-0.01,0.030400001,5.389999866,5.25,15.30000019,0.007301588,0.013737499,4.496638847,1.276278441,3.267877041,-0.364633903,-6.886664108,107.61072,-1,-1.01783227,5.091435694,0.060295687,21.06967163,3726,61.5,35.29999924,-2.1875,0.033430674,164.6925509,165,0,0,0,327.5,-0.170487374
1.6971E+18,11.30018995,0.0319,-0.01,0.030400001,5.389999866,5.25,15.30000019,0.012415547,0.014383528,4.459433875,1.236265905,3.274271632,-0.426395289,-6.886663666,107.6107203,-1,-1.01783227,5.091435694,0.060295687,21.06967163,3726,61.5,35.29999924,-2.1875,0.033430674,164.6925509,165,0,0,0,337.5,-0.168763563
1.6971E+18,11.4002199,0.0319,-0.01,0.030400001,5.389999866,5.25,15.30000019,0.018552203,0.019171301,4.413920461,1.19526046,3.27021351,-0.479807259,-6.886663223,107.6107206,-1,-0.543551346,5.953129645,0.056160744,21.06967163,3726,61.5,35.29999924,-2.1875,0.033430674,164.6925509,165,0,0,0,337.5,-0.166271418
1.6971E+18,11.50022989,0.0262,0.038200002,0.0187,5.179999828,4.690000057,15.30000019,0.018552203,0.018588757,4.361128351,1.145559938,3.259229053,-0.544432479,-6.88666278,107.6107209,-1,-0.543551346,5.953129645,0.056160744,21.06967163,3726,61.5,35.29999924,-2.1875,0.046321487,164.6925509,165,0,0,0,337.5,-0.161887422
1.6971E+18,11.60033997,0.0262,0.038200002,0.0187,5.179999828,4.690000057,15.30000019,0.019575019,0.012552013,4.334630433,1.119513041,3.250164638,-0.526793432,-6.886662336,107.6107212,-1,-0.543551346,5.953129645,0.056160744,21.06967163,3726,61.5,35.29999924,-2.1875,0.046321487,164.6925509,165,0,0,0,337.5,-0.158567667
1.6971E+18,11.70022989,0.0262,0.038200002,0.0187,5.179999828,4.690000057,15.30000019,0.027757306,0.01888215,4.26879715,1.052372608,3.230359215,-0.675643806,-6.886661891,107.6107215,-1,-0.543551346,5.953129645,0.056160744,21.06967163,3726,61.5,35.29999924,-2.1875,0.046321487,166.1117922,165,0,0,0,337.5,-0.158882469
1.6971E+18,11.80035994,0.0262,0.038200002,0.0187,5.179999828,4.690000057,15.30000019,0.023666162,0.015588607,4.200733107,0.980097219,3.205720264,-0.649067247,-6.886661447,107.6107218,-1,-0.543551346,5.953129645,0.056160744,21.07339096,3660,61.5,35.29999924,-2.1875,0.046321487,166.1117922,166,0,0,0,347.5,-0.15359579
1.6971E+18,11.90139981,0.0262,0.038200002,0.0187,5.179999828,4.690000057,15.30000019,0.027757306,0.017447047,4.13601798,0.893950955,3.174693555,-0.606814981,-6.886661002,107.6107221,-1,-0.543551346,5.953129645,0.056160744,21.07339096,3660,61.5,35.29999924,-2.1875,0.046321487,166.1117922,166,0,0,0,347.5,-0.150430426
1.6971E+18,12.00016,0.0262,0.038200002,0.0187,5.179999828,4.690000057,15.30000019,0.02162065,0.012667644,4.073405911,0.807686009,3.137682915,-0.551608723,-6.886660556,107.6107224,-1,-0.543551346,5.953129645,0.056160744,21.07339096,3660,61.5,35.29999924,-2.1875,0.046321487,166.1117922,166,0,0,0,347.5,-0.146323994
1.6971E+18,12.10022989,0.0262,0.038200002,0.0187,5.179999828,4.690000057,15.30000019,0.027757306,0.014580274,4.005587879,0.681856345,3.074105165,-0.337176657,-6.88666011,107.6107227,-1,-0.543551346,5.953129645,0.056160744,21.07339096,3660,61.5,35.29999924,-2.28515625,0.046321487,166.1117922,166,0,0,0,347.5,-0.14207989
1.6971E+18,12.20033997,0.0262,0.038200002,0.0187,5.179999828,4.690000057,15.30000019,0.032871265,0.016004348,3.986742371,0.63884314,3.051168861,-0.366924191,-6.886659663,107.610723,-1,-0.543551346,5.953129645,0.056160744,21.07339096,3660,61.5,35.29999924,-2.28515625,0.046321487,167.8724676,166,0,0,0,347.5,-0.128274158
1.6971E+18,12.30033997,0.0262,0.038200002,0.0187,5.179999828,4.690000057,15.30000019,0.03184845,0.012669062,3.960979497,0.556621368,3.003148991,-0.303332133,-6.886659216,107.6107233,-1,-0.543551346,5.953129645,0.056160744,21.07339096,3660,61.5,35.29999924,-2.28515625,0.046321487,167.8724676,167,0,0,0,357.5,-0.14338392
1.6971E+18,12.40020992,0.0262,0.038200002,0.0187,5.179999828,4.690000057,15.30000019,0.040030737,0.015811063,3.928787864,0.450366117,2.928222251,-0.213682754,-6.886658768,107.6107236,-1,-0.529895833,6.021338622,0.081078373,21.07339096,3660,61.5,35.29999924,-2.28515625,0.046321487,167.8724676,167,0,0,0,357.5,-0.130949497
1.6971E+18,12.50018995,0.040400002,0.0041,0.018299999,4.789999962,3.859999895,15.19999981,0.044121881,0.019678088,3.910508268,0.383264898,2.871610556,-0.214153248,-6.886658318,107.6107239,-1,-0.529895833,6.021338622,0.081078373,21.07339096,3660,61.5,35.29999924,-2.28515625,0.040607514,167.8724676,167,0,0,0,357.5,-0.116440415
1.6971E+18,12.60034995,0.040400002,0.0041,0.018299999,4.789999962,3.859999895,15.19999981,0.048213024,0.020503459,3.897540129,0.318329841,2.810217227,-0.092468635,-6.886657867,107.6107242,-1,-0.529895833,6.021338622,0.081078373,21.07339096,3660,61.5,35.29999924,-2.28515625,0.040607514,167.8724676,167,0,0,0,357.5,-0.12093585
1.6971E+18,12.70022989,0.040400002,0.0041,0.018299999,4.789999962,3.859999895,15.19999981,0.048213024,0.019603688,3.886047632,0.249728154,2.745461312,-0.046504674,-6.886657415,107.6107245,-1,-0.529895833,6.021338622,0.081078373,21.07339096,3660,61.5,35.29999924,-2.28515625,0.040607514,168.084251,167,0,0,0,357.5,-0.115953527
1.6971E+18,12.80305997,0.040400002,0.0041,0.018299999,4.789999962,3.859999895,15.19999981,0.050258536,0.017329542,3.886121948,0.185847214,2.678395196,0.045548426,-6.886656961,107.6107248,-1,-0.529895833,6.021338622,0.081078373,21.1010704,3354,61.5,35.29999924,-2.28515625,0.040607514,168.084251,168,0,0,0,365,-0.111370698
1.6971E+18,12.90290995,0.040400002,0.0041,0.018299999,4.789999962,3.859999895,15.19999981,0.052304168,0.018483918,3.895456292,0.123910155,2.605191818,0.069263163,-6.886656278,107.6107252,-1,-0.529895833,6.021338622,0.081078373,21.1010704,3354,61.5,35.29999924,-2.28515625,0.040607514,168.084251,168,0,0,0,365,-0.107093312
1.6971E+18,13.00119987,0.040400002,0.0041,0.018299999,4.789999962,3.859999895,15.19999981,0.055372496,0.020071976,3.908992478,0.055063858,2.533990914,0.103669207,-6.886655821,107.6107255,-1,-0.529895833,6.021338622,0.081078373,21.1010704,3354,61.5,35.29999924,-2.28515625,0.040607514,168.084251,168,0,0,0,365,-0.10097824
1.6971E+18,13.10018995,0.040400002,0.0041,0.018299999,4.789999962,3.859999895,15.19999981,0.065600295,0.024932846,3.92792298,-0.017387055,2.464521486,0.176687262,-6.886655592,107.6107257,-1,-0.529895833,6.021338622,0.081078373,21.1010704,3354,61.5,35.29999924,-2.28515625,0.040607514,168.084251,168,0,0,0,365,-0.098219186
1.6971E+18,13.20014976,0.040400002,0.0041,0.018299999,4.789999962,3.859999895,15.19999981,0.062531967,0.021839779,3.952063715,-0.08969526,2.402206468,0.239359179,-6.886655133,107.6107259,-1,-0.529895833,6.021338622,0.081078373,21.1010704,3354,61.5,35.29999924,-2.28515625,0.040607514,169.1559029,168,0,0,0,365,-0.095438302
1.6971E+18,13.30182989,0.040400002,0.0041,0.018299999,4.789999962,3.859999895,15.19999981,0.066623111,0.019226421,3.968785665,-0.159649376,2.3415847,0.149079502,-6.886654442,107.6107264,-1,-0.529895833,6.021338622,0.081078373,21.1010704,3354,61.5,35.29999924,-2.28515625,0.040607514,169.1559029,169,0,0,0,375,-0.095184319
1.6971E+18,13.40035994,0.040400002,0.0041,0.018299999,4.789999962,3.859999895,15.19999981,0.067645926,0.019531043,3.98768029,-0.231659894,2.280923639,0.106378444,-6.886654211,107.6107265,-1,-0.501303719,6.005656465,0.047380366,21.1010704,3354,61.5,35.29999924,-2.28515625,0.040607514,169.1559029,169,0,0,0,375,-0.092830531
1.6971E+18,13.50049997,0.0175,-0.0004,0.038799997,4.75,3.210000038,15.10000038,0.069691439,0.019354317,4.006732089,-0.302888613,2.219265078,0.121055877,-6.886653748,107.6107268,-1,-0.501303719,6.005656465,0.047380366,21.1010704,3354,61.5,35.29999924,-2.28515625,0.017504571,169.1559029,169,0,0,0,375,-0.089781761
1.6971E+18,13.60041984,0.0175,-0.0004,0.038799997,4.75,3.210000038,15.10000038,0.073782582,0.020807104,4.023970834,-0.375552053,2.157672291,0.173490447,-6.886653284,107.6107271,-1,-0.501303719,6.005656465,0.047380366,21.1010704,3354,61.5,35.29999924,-2.28515625,0.017504571,169.1559029,169,0,0,0,375,-0.086299829
1.6971E+18,13.70034995,0.0175,-0.0004,0.038799997,4.75,3.210000038,15.10000038,0.084010501,0.02176166,4.046882793,-0.447038956,2.090397748,0.222834404,-6.886652818,107.6107274,-1,-0.501303719,6.005656465,0.047380366,21.1010704,3354,61.5,35.29999924,-2.28515625,0.017504571,170.5439474,169,0,0,0,375,-0.083246499
1.6971E+18,13.80024986,0.0175,-0.0004,0.038799997,4.75,3.210000038,15.10000038,0.080942173,0.021594144,4.062030441,-0.514313365,2.023445454,0.137632652,-6.886652352,107.6107277,-1,-0.501303719,6.005656465,0.047380366,21.09706116,3526,61.5,35.29999924,-2.28515625,0.017504571,170.5439474,170,0,0,0,385,-0.077610068
1.6971E+18,13.90038989,0.0175,-0.0004,0.038799997,4.75,3.210000038,15.10000038,0.086056013,0.0275908,4.067947103,-0.591189351,1.955767939,0.020687646,-6.886651884,107.610728,-1,-0.501303719,6.005656465,0.047380366,21.09706116,3526,61.5,35.29999924,-2.28515625,0.017504571,170.5439474,170,0,0,0,385,-0.074391358
1.6971E+18,14.00039987,0.0175,-0.0004,0.038799997,4.75,3.210000038,15.10000038,0.087078829,0.025009139,4.07098936,-0.666940828,1.883690406,-0.015669683,-6.886651416,107.6107283,-1,-0.501303719,6.005656465,0.047380366,21.09706116,3526,61.5,35.29999924,-2.28515625,0.017504571,170.5439474,170,0,0,0,385,-0.070717394
1.6971E+18,14.10035994,0.0175,-0.0004,0.038799997,4.75,3.210000038,15.10000038,0.097306628,0.027703566,4.069931425,-0.710161231,1.849757045,-0.029257417,-6.886650945,107.6107285,-1,-0.501303719,6.005656465,0.047380366,21.09706116,3526,61.5,35.29999924,-2.7734375,0.017504571,170.5439474,170,0,0,0,385,-0.065353505
1.6971E+18,14.2003799,0.0175,-0.0004,0.038799997,4.75,3.210000038,15.10000038,0.09935226,0.02929602,4.052265577,-0.786956121,1.778831622,-0.227273916,-6.886650473,107.6107288,-1,-0.501303719,6.005656465,0.047380366,21.09706116,3526,61.5,35.29999924,-2.7734375,0.017504571,171.7964362,170,0,0,0,385,-0.078914508
1.6971E+18,14.30032,0.0175,-0.0004,0.038799997,4.75,3.210000038,15.10000038,0.103443403,0.029599473,4.032479587,-0.872442457,1.704724814,-0.243475415,-6.88665,107.6107291,-1,-0.501303719,6.005656465,0.047380366,21.09706116,3526,61.5,35.29999924,-2.7734375,0.017504571,171.7964362,171,0,0,0,395,-0.060571413
1.6971E+18,14.40018995,0.002,-0.0065,0.048999999,4.75,3.210000038,15.10000038,0.105488915,0.026001699,4.006469421,-0.988570522,1.588165535,-0.241950842,-6.886649526,107.6107294,-1,-0.544384783,6.003523889,0.073763307,21.09706116,3526,61.5,35.29999924,-2.7734375,0.006800735,171.7964362,171,0,0,0,395,-0.055593517
1.6971E+18,14.50182989,0.002,-0.0065,0.048999999,4.710000038,2.109999895,14.69999981,0.110602875,0.027053075,3.99970026,-1.026757085,1.548427305,-0.149431609,-6.88664905,107.6107297,-1,-0.544384783,6.003523889,0.073763307,21.09706116,3526,61.5,35.29999924,-2.7734375,0.006800735,171.7964362,171,0,0,0,395,-0.032784566
1.6971E+18,14.60034995,0.002,-0.0065,0.048999999,4.710000038,2.109999895,14.69999981,0.117762346,0.030210827,3.975827318,-1.112188859,1.465670373,-0.248896557,-6.886648573,107.61073,-1,-0.544384783,6.003523889,0.073763307,21.09706116,3526,61.5,35.29999924,-2.7734375,0.006800735,171.7964362,171,0,0,0,395,-0.061526075
1.6971E+18,14.70030976,0.002,-0.0065,0.048999999,4.710000038,2.109999895,14.69999981,0.112648387,0.025809927,3.956185262,-1.195909123,1.380857579,-0.270357993,-6.886648095,107.6107303,-1,-0.544384783,6.003523889,0.073763307,21.09706116,3526,61.5,35.29999924,-2.7734375,0.006800735,172.8896854,171,0,0,0,395,-0.040180746
1.6971E+18,14.80755994,0.002,-0.0065,0.048999999,4.710000038,2.109999895,14.69999981,0.118785162,0.027815223,3.93865566,-1.27584397,1.28952676,-0.217963958,-6.886647615,107.6107305,-1,-0.544384783,6.003523889,0.073763307,21.09714127,3420,61.5,35.29999924,-2.7734375,0.006800735,172.8896854,172,0,0,0,402.5,-0.013894318
1.6971E+18,14.90039987,0.002,-0.0065,0.048999999,4.710000038,2.109999895,14.69999981,0.130035777,0.032333508,3.902453953,-1.40250403,1.1516578,-0.367161794,-6.886647128,107.6107308,-1,-0.544384783,6.003523889,0.073763307,21.09714127,3420,61.5,35.29999924,-2.7734375,0.006800735,172.8896854,172,0,0,0,402.5,-0.046809293
1.6971E+18,15.00019994,0.002,-0.0065,0.048999999,4.710000038,2.109999895,14.69999981,0.132081289,0.031735275,3.873431426,-1.495158015,1.06776616,-0.389867329,-6.886646644,107.6107311,-1,-0.544384783,6.003523889,0.073763307,21.09714127,3420,61.5,35.29999924,-2.7734375,0.006800735,172.8896854,172,0,0,0,402.5,-0.002435306
1.6971E+18,15.10026982,0.002,-0.0065,0.048999999,4.710000038,2.109999895,14.69999981,0.136172433,0.028539846,3.844842837,-1.590278522,0.987738205,-0.285896573,-6.886646159,107.6107314,-1,-0.544384783,6.003523889,0.073763307,21.09714127,3420,61.5,35.29999924,-1.40625,0.006800735,172.8896854,172,0,0,0,402.5,-0.019831652
1.6971E+18,15.20306995,0.002,-0.0065,0.048999999,4.710000038,2.109999895,14.69999981,0.135149736,0.029196274,3.814166566,-1.68294564,0.904567089,-0.309185665,-6.886645671,107.6107317,-1,-0.544384783,6.003523889,0.073763307,21.09714127,3420,61.5,35.29999924,-1.40625,0.006800735,174.8087339,172,0,0,0,402.5,-0.017375728
1.6971E+18,15.30036992,0.002,-0.0065,0.048999999,4.710000038,2.109999895,14.69999981,0.137195249,0.028346803,3.80074527,-1.735047977,0.864226537,-0.308991386,-6.886645182,107.6107319,-1,-0.544384783,6.003523889,0.073763307,21.09714127,3420,61.5,35.29999924,-1.40625,0.006800735,174.8087339,172,0,0,0,412.5,-0.011959909
1.6971E+18,15.40032,0.0275,-0.015600001,0.055300001,4.710000038,2.109999895,14.69999981,0.143332024,0.030858485,3.770048499,-1.869467651,0.739313383,-0.188957594,-6.88664469,107.6107322,-1,-0.522359556,5.905654931,0.09392105,21.09714127,3420,61.5,35.29999924,-1.40625,0.03161661,174.8087339,174,0,0,0,412.5,-0.027075106
1.6971E+18,15.50027981,0.0275,-0.015600001,0.055300001,4.46999979,1.870000005,14.19999981,0.149468679,0.032777801,3.749959266,-1.957468878,0.648913276,-0.194164558,-6.88664395,107.6107326,-1,-0.522359556,5.905654931,0.09392105,21.09714127,3420,61.5,35.29999924,-1.40625,0.03161661,174.8087339,174,0,0,0,412.5,-0.012999592
1.6971E+18,15.60032998,0.0275,-0.015600001,0.055300001,4.46999979,1.870000005,14.19999981,0.157650967,0.031497348,3.740447674,-2.038430589,0.55956726,-0.148909542,-6.886643702,107.6107328,-1,-0.522359556,5.905654931,0.09392105,21.09714127,3420,61.5,35.29999924,-1.40625,0.03161661,174.8087339,174,0,0,0,412.5,-0.003714379
1.6971E+18,15.70025984,0.0275,-0.015600001,0.055300001,4.46999979,1.870000005,14.19999981,0.16174211,0.035274912,3.726880309,-2.121520341,0.465698166,-0.201088798,-6.886643205,107.610733,-1,-0.522359556,5.905654931,0.09392105,21.09714127,3420,61.5,35.29999924,-1.40625,0.03161661,176.1817804,174,0,0,0,412.5,-0.012114854
1.6971E+18,15.80036992,0.0275,-0.015600001,0.055300001,4.46999979,1.870000005,14.19999981,0.165833254,0.035206113,3.715802103,-2.205029723,0.370520295,-0.077047515,-6.886642706,107.6107333,-1,-0.522359556,5.905654931,0.09392105,21.10111046,3360,61.5,35.29999924,-1.40625,0.03161661,176.1817804,174,0,0,0,422.5,-0.031929303
1.6971E+18,15.90034995,0.0275,-0.015600001,0.055300001,4.46999979,1.870000005,14.19999981,0.167878766,0.033567019,3.710311262,-2.282443913,0.26910917,-0.155491698,-6.886641953,107.6107337,-1,-0.522359556,5.905654931,0.09392105,21.10111046,3360,61.5,35.29999924,-1.40625,0.03161661,176.1817804,176,0,0,0,422.5,-0.019545134
1.6971E+18,16.00040986,0.0275,-0.015600001,0.055300001,4.46999979,1.870000005,14.19999981,0.16685607,0.029212011,3.705468764,-2.373080582,0.169300149,-0.125231039,-6.886641701,107.6107338,-1,-0.522359556,5.905654931,0.09392105,21.10111046,3360,61.5,35.29999924,-1.40625,0.03161661,176.1817804,176,0,0,0,422.5,-0.027108992
1.6971E+18,16.10040986,0.0275,-0.015600001,0.055300001,4.46999979,1.870000005,14.19999981,0.177083869,0.032474991,3.701399324,-2.422431947,0.117501736,-0.135496441,-6.886641197,107.6107341,-1,-0.522359556,5.905654931,0.09392105,21.10111046,3360,61.5,35.29999924,-2.08984375,0.03161661,176.1817804,176,0,0,0,422.5,-0.031458601
1.6971E+18,16.20043981,0.0275,-0.015600001,0.055300001,4.46999979,1.870000005,14.19999981,0.18424334,0.035060443,3.692961897,-2.566460378,360.1448581,-0.148390277,-6.886640691,107.6107344,-1,-0.522359556,5.905654931,0.09392105,21.10111046,3360,61.5,35.29999924,-2.08984375,0.03161661,179.2314359,176,0,0,0,422.5,-0.037387613
1.6971E+18,16.30041984,0.0275,-0.015600001,0.055300001,4.46999979,1.870000005,14.19999981,0.191402812,0.037780415,3.691281245,-2.616462434,360.0926764,-0.096548266,-6.886640183,107.6107346,-1,-0.522359556,5.905654931,0.09392105,21.10111046,3360,61.5,35.29999924,-2.08984375,0.03161661,179.2314359,176,0,0,0,432.5,-0.038223993
1.6971E+18,16.40464,0.0071,-0.016000001,0.056599997,4.449999809,0.5,14,0.195493956,0.037420724,3.679867336,-2.777029161,359.9455888,-0.148776899,-6.886639673,107.6107349,-1,-0.516843476,5.854675767,0.11781147,21.10111046,3360,61.5,35.29999924,-2.08984375,0.017504572,179.2314359,179,0,0,0,432.5,-0.03837993
1.6971E+18,16.50048,0.0071,-0.016000001,0.056599997,4.449999809,0.5,14,0.200607915,0.035707928,3.672337076,-2.887705305,359.8454621,-0.093008741,-6.886639162,107.6107352,-1,-0.516843476,5.854675767,0.11781147,21.10111046,3360,61.5,35.29999924,-2.08984375,0.017504572,179.2314359,179,0,0,0,432.5,0.041874662
1.6971E+18,16.60075981,0.0071,-0.016000001,0.056599997,4.449999809,0.5,14,0.206744571,0.036581486,3.66581649,-2.945313218,359.7972985,-0.188413705,-6.886638648,107.6107354,-1,-0.516843476,5.854675767,0.11781147,21.10111046,3360,61.5,35.29999924,-2.08984375,0.017504572,179.2314359,179,0,0,0,432.5,0.047777571
1.6971E+18,16.70055987,0.0071,-0.016000001,0.056599997,4.449999809,0.5,14,0.208790202,0.039161686,3.652311909,-3.054947871,359.7032675,-0.219115575,-6.886638133,107.6107357,-1,-0.516843476,5.854675767,0.11781147,21.10111046,3360,61.5,35.29999924,-2.08984375,0.017504572,182.2093365,179,0,0,0,432.5,0.029400509
1.6971E+18,16.80150989,0.0071,-0.016000001,0.056599997,4.449999809,0.5,14,0.210835714,0.03428293,3.63770711,-3.163091293,359.6058196,-0.188413732,-6.886637616,107.610736,-1,-0.516843476,5.854675767,0.11781147,21.09706116,3346,61.5,35.29999924,-2.08984375,0.017504572,182.2093365,179,0,0,0,442.5,0.052449055
1.6971E+18,16.90036992,0.0071,-0.016000001,0.056599997,4.449999809,0.5,14,0.223109145,0.039822791,3.626768139,-3.26675739,359.5086997,-0.154488446,-6.886637096,107.6107362,-1,-0.516843476,5.854675767,0.11781147,21.09706116,3346,61.5,35.29999924,-2.08984375,0.017504572,182.2093365,182,0,0,0,442.5,0.058688182
1.6971E+18,17.00032998,0.0071,-0.016000001,0.056599997,4.449999809,0.5,14,0.223109145,0.037282709,3.605929767,-3.425076699,359.3572932,-0.204868622,-6.886636574,107.6107365,-1,-0.516843476,5.854675767,0.11781147,21.09706116,3346,61.5,35.29999924,-2.08984375,0.017504572,182.2093365,182,0,0,0,442.5,0.063412972
1.6971E+18,17.10040986,0.0071,-0.016000001,0.056599997,4.449999809,0.5,14,0.22924592,0.041063722,3.593937559,-3.52972791,359.2533124,-0.152011166,-6.886636049,107.6107367,-1,-0.516843476,5.854675767,0.11781147,21.09706116,3346,61.5,35.29999924,-2.67578125,0.017504572,182.2093365,182,0,0,0,442.5,0.092697911
1.6971E+18,17.20467994,0.0071,-0.016000001,0.056599997,4.449999809,0.5,14,0.23435976,0.042587202,3.586479053,-3.581462938,359.2028253,-0.232025308,-6.886635521,107.610737,-1,-0.516843476,5.854675767,0.11781147,21.09706116,3346,61.5,35.29999924,-2.67578125,0.017504572,185.0880611,182,0,0,0,442.5,0.078926727
1.6971E+18,17.3003799,0.0071,-0.016000001,0.056599997,4.449999809,0.5,14,0.241519351,0.043680534,3.576677032,-3.684190476,359.0974504,-0.151476473,-6.886634991,107.6107372,-1,-0.516843476,5.854675767,0.11781147,21.09706116,3346,61.5,35.29999924,-2.67578125,0.017504572,185.0880611,182,0,0,0,450,0.060053546
1.6971E+18,17.40043981,-0.0029,-0.017100001,0.067900002,4.340000153,-0.150000006,14,0.25174715,0.045037571,3.553870567,-3.841413624,358.9382263,-0.232817745,-6.88663419,107.6107376,-1,-0.574382538,5.890323992,0.111477485,21.09706116,3346,61.5,35.29999924,-2.67578125,0.017344164,185.0880611,185,0,0,0,450,0.087277457
1.6971E+18,17.50025984,-0.0029,-0.017100001,0.067900002,4.340000153,-0.150000006,14,0.25174715,0.040822159,3.546500685,-3.890615075,358.8867279,-0.216835831,-6.886633922,107.6107377,-1,-0.574382538,5.890323992,0.111477485,21.09706116,3346,61.5,35.29999924,-2.67578125,0.017344164,185.0880611,185,0,0,0,450,0.116778336
1.6971E+18,17.60042982,-0.0029,-0.017100001,0.067900002,4.340000153,-0.150000006,14,0.255838294,0.040443875,3.525145091,-4.048729588,358.7325333,-0.19867186,-6.886633385,107.610738,-1,-0.574382538,5.890323992,0.111477485,21.09706116,3346,61.5,35.29999924,-2.67578125,0.017344164,185.0880611,185,0,0,0,450,0.076262973
1.6971E+18,17.70032,-0.0029,-0.017100001,0.067900002,4.340000153,-0.150000006,14,0.265043278,0.043364462,3.512895553,-4.152342725,358.633992,-0.179766771,-6.886632845,107.6107382,-1,-0.574382538,5.890323992,0.111477485,21.09706116,3346,61.5,35.29999924,-2.67578125,0.017344164,188.1790603,185,0,0,0,450,0.125051156
1.6971E+18,17.80061978,-0.0029,-0.017100001,0.067900002,4.340000153,-0.150000006,14,0.270157237,0.044914104,3.493060233,-4.258751679,358.5382389,-0.246110482,-6.886632032,107.6107386,-1,-0.574382538,5.890323992,0.111477485,21.09320068,3366,61.5,35.29999924,-2.67578125,0.017344164,188.1790603,185,0,0,0,460,0.107716911
1.6971E+18,17.90054989,-0.0029,-0.017100001,0.067900002,4.340000153,-0.150000006,14,0.280385156,0.04734984,3.478013382,-4.364184276,358.447898,-0.225621614,-6.88663176,107.6107387,-1,-0.574382538,5.890323992,0.111477485,21.09320068,3366,61.5,35.29999924,-2.67578125,0.017344164,188.1790603,188,0,0,0,460,0.111389317
1.6971E+18,18.00823987,-0.0029,-0.017100001,0.067900002,4.340000153,-0.150000006,14,0.284476299,0.049757764,3.459960365,-4.469761233,358.3538669,-0.237098708,-6.886631214,107.6107389,-1,-0.574382538,5.890323992,0.111477485,21.09320068,3366,61.5,35.29999924,-2.67578125,0.017344164,188.1790603,188,0,0,0,460,0.113741465
1.6971E+18,18.10042982,-0.0029,-0.017100001,0.067900002,4.340000153,-0.150000006,14,0.290612955,0.047652029,3.449844849,-4.584193325,358.2611205,-0.22941947,-6.886630667,107.6107392,-1,-0.574382538,5.890323992,0.111477485,21.09320068,3366,61.5,35.29999924,-2.1875,0.017344164,188.1790603,188,0,0,0,460,0.119919084
1.6971E+18,18.20035994,-0.0029,-0.017100001,0.067900002,4.340000153,-0.150000006,14,0.296749611,0.047062773,3.439008383,-4.694871604,358.1679095,-0.233203099,-6.886630118,107.6107394,-1,-0.574382538,5.890323992,0.111477485,21.09320068,3366,61.5,35.29999924,-2.1875,0.017344164,191.7155864,188,0,0,0,460,0.124042511
1.6971E+18,18.30030976,-0.0029,-0.017100001,0.067900002,4.340000153,-0.150000006,14,0.30697753,0.048583541,3.42580854,-4.806991785,358.0821335,-0.247742577,-6.886629566,107.6107396,-1,-0.574382538,5.890323992,0.111477485,21.09320068,3366,61.5,35.29999924,-2.1875,0.017344164,191.7155864,188,0,0,0,470,0.128888935
1.6971E+18,18.40057984,-0.0029,-0.017100001,0.067900002,4.340000153,-0.150000006,14,0.311068673,0.048614878,3.405280672,-4.922755585,357.9972869,-0.276844679,-6.886629012,107.6107399,-1,-0.59735046,5.945411046,0.159528509,21.09320068,3366,61.5,35.29999924,-2.1875,0.017344164,191.7155864,191,0,0,0,470,0.130203739
