Time,%time,field.velocity_x,field.velocity_y,field.velocity_z,field.dvl_roll,field.dvl_pitch,field.dvl_yaw,field.depth_data,field.depth_rate,field.roll_data,field.pitch_data,field.yaw_data,field.yaw_rate_data,field.lat,field.long,field.gps_status,field.navigasi_north,field.navigasi_east,field.navigasi_depth,field.voltage,field.current,field.humidity,field.temperature,field.pressure,field.surge,field.des_mm,field.cur_mm,field.roll_sp,field.servo_position,field.yaw_sp,field.internal_volume,field.bow_percentage,be_rate,depthrate_mm,depthrate_mm
0,1.70E+18,0.073699996,0.0027,0.055500001,0.980000019,-10.98999977,236.3999939,3.470449348,0.075786136,-0.298552954,-13.23750701,269.8427735,-0.087342668,-6.886526735,107.6101822,-1,0,0,0,20.54022026,2780,59.79999924,36.99000168,935.9000244,0.073749437,250.4979704,251,0,0,0,565,0.036277898,0,7.5786136,0
0.1,1.70E+18,0.073699996,0.0027,0.055500001,0.980000019,-10.98999977,236.3999939,3.474541326,0.073896617,-0.284738723,-13.18097048,269.7745736,-0.00534481,-6.886526612,107.6101832,-1,0,0,0,20.54022026,2780,59.79999924,36.99000168,935.9000244,0.073749437,250.4979704,251,0,0,0,565,0.036277898,0,7.3896617,-1.889519
0.2,1.70E+18,0.073699996,0.0027,0.055500001,0.980000019,-10.98999977,236.3999939,3.479655285,0.072955936,-0.274095174,-13.11614901,269.7032303,-0.063188592,-6.886526489,107.6101843,-1,0,0,0,20.52823067,2854,59.79999924,36.99000168,935.9000244,0.073749437,250.4979704,251,0,0,0,565,0.036277898,0,7.2955936,-0.940681
0.3,1.70E+18,0.074900001,-0.0015,0.049200002,1.629999995,-10.55000019,236,3.485791106,0.074238651,-0.261497334,-13.05203738,269.6315043,-0.042295207,-6.886526368,107.6101852,-1,0,0,0,20.52823067,2854,59.79999924,36.99000168,935.9000244,0.07491502,250.4979704,251,0,0,0,565,0.036277898,0,7.4238651,1.282715
0.4,1.70E+18,0.074900001,-0.0015,0.049200002,1.629999995,-10.55000019,236,3.492951412,0.073354647,-0.256973242,-12.98914299,269.5596962,-0.122227915,-6.886526244,107.6101863,-1,0,0,0,20.52823067,2854,59.79999924,36.99000168,935.9000244,0.07491502,250.4979704,251,0,0,0,557.5,0.036277898,-7.5,7.3354647,-0.884004
0.5,1.70E+18,0.074900001,-0.0015,0.049200002,1.629999995,-10.55000019,236,3.499088187,0.073111683,-0.248858438,-12.92132411,269.4855921,-0.080473625,-6.88652612,107.6101873,-1,0,0,0,20.52823067,2854,59.79999924,36.99000168,935.9000244,0.07491502,250.4979704,251,0,0,0,557.5,0.036277898,-7.5,7.3111683,-0.242964
0.6,1.70E+18,0.074900001,-0.0015,0.049200002,1.629999995,-10.55000019,236,3.50727119,0.073354192,-0.244427001,-12.84730453,269.4129913,-0.131668461,-6.886525995,107.6101884,-1,0,0,0,20.52823067,2854,59.79999924,36.99000168,935.2999878,0.07491502,250.4979704,251,0,0,0,557.5,0.036277898,-7.5,7.3354192,0.242509
0.7,1.70E+18,0.074900001,-0.0015,0.049200002,1.629999995,-10.55000019,236,3.517499108,0.075109042,-0.245527646,-12.81253063,269.3808732,-0.20821487,-6.886525934,107.6101889,-1,0,0,0,20.52823067,2854,59.79999924,36.99000168,935.2999878,0.07491502,250.4979704,251,0,0,0,557.5,0.036277898,-7.5,7.5109042,1.75485
0.8,1.70E+18,0.074900001,-0.0015,0.049200002,1.629999995,-10.55000019,236,3.51852109,0.070052795,-0.242596916,-12.69840435,269.2625143,-0.13497069,-6.886525746,107.6101905,-1,0,0,0,20.52823067,2854,59.79999924,36.99000168,935.2999878,0.07491502,250.4979704,251,0,0,0,557.5,0.036277898,-7.5,7.0052795,-5.056247
0.9,1.70E+18,0.074900001,-0.0015,0.049200002,1.629999995,-10.55000019,236,3.522613068,0.07132604,-0.237285512,-12.62057587,269.1842006,-0.109409583,-6.886525622,107.6101915,-1,0,0,0,20.52823067,2854,59.79999924,36.99000168,935.2999878,0.07491502,250.4979704,251,0,0,0,547.5,0.036277898,-10,7.132604,1.273245
1,1.70E+18,0.074900001,-0.0015,0.049200002,1.629999995,-10.55000019,236,3.531816502,0.072068565,-0.233068534,-12.53742653,269.1181602,-0.114274904,-6.886525558,107.6101921,-1,0,0,0,20.52823067,2854,59.79999924,37.00999832,935.2999878,0.07491502,250.4979704,251,0,0,0,547.5,0.036277898,-10,7.2068565,0.742525
1.1,1.70E+18,0.074900001,-0.0015,0.049200002,1.629999995,-10.55000019,236,3.539999504,0.071830958,-0.225360894,-12.45281395,269.0441927,-0.107228439,-6.886525372,107.6101937,-1,0,0,0,20.52823067,2854,59.79999924,37.00999832,935.2999878,0.07491502,250.4979704,251,0,0,0,547.5,0.036277898,-10,7.1830958,-0.237607
1.2,1.70E+18,0.074900001,-0.0015,0.049200002,1.629999995,-10.55000019,236,3.54613616,0.071679436,-0.220202273,-12.36969622,268.9707993,-0.110090586,-6.886525247,107.6101948,-1,0,0,0,20.5202713,2866,59.79999924,37.00999832,935.2999878,0.07491502,250.4979704,251,0,0,0,547.5,0.036277898,-10,7.1679436,-0.151522
1.3,1.70E+18,0.070300005,-0.011600001,0.046,1.340000033,-9.600000381,234.6000061,3.550227423,0.071429759,-0.216615152,-12.27536276,268.8994286,-0.092948946,-6.886525122,107.6101958,-1,0,0,0,20.5202713,2866,59.79999924,37.00999832,935.2999878,0.071250619,250.4979704,251,0,0,0,547.5,0.036277898,-10,7.1429759,-0.249677
1.4,1.70E+18,0.070300005,-0.011600001,0.046,1.340000033,-9.600000381,234.6000061,3.554318447,0.068659276,-0.205356387,-12.17735364,268.8321581,-0.044974309,-6.886524998,107.6101969,-1,0,0,0,20.5202713,2866,59.79999924,37.00999832,935.2999878,0.071250619,250.4979704,251,0,0,0,540,0.036277898,-7.5,6.8659276,-2.770483
1.5,1.70E+18,0.070300005,-0.011600001,0.046,1.340000033,-9.600000381,234.6000061,3.558410425,0.067736641,-0.197599457,-12.07933257,268.7664731,-0.028675942,-6.886524876,107.610198,-1,0,0,0,20.5202713,2866,59.79999924,37.00999832,935.2999878,0.071250619,250.4979704,251,0,0,0,540,0.036277898,-7.5,6.7736641,-0.922635
1.6,1.70E+18,0.070300005,-0.011600001,0.046,1.340000033,-9.600000381,234.6000061,3.569660206,0.067482747,-0.180991983,-11.98035649,268.7052982,0.028935074,-6.886524753,107.6101991,-1,0,0,0,20.5202713,2866,59.79999924,37.00999832,935.2000122,0.071250619,250.4979704,251,0,0,0,540,0.036277898,-7.5,6.7482747,-0.253894
1.7,1.70E+18,0.070300005,-0.011600001,0.046,1.340000033,-9.600000381,234.6000061,3.572727938,0.067428313,-0.157864711,-11.87828221,268.6460641,0.082160109,-6.88652463,107.6102002,-1,0,0,0,20.5202713,2866,59.79999924,37.00999832,935.2000122,0.071250619,250.4979704,251,0,0,0,540,0.036277898,-7.5,6.7428313,-0.054434
1.8,1.70E+18,0.070300005,-0.011600001,0.046,1.340000033,-9.600000381,234.6000061,3.578866024,0.067487217,-0.134402149,-11.77896104,268.5912582,0.107775612,-6.886524508,107.6102013,-1,0,0,0,20.5202713,2866,59.79999924,37.00999832,935.2000122,0.071250619,250.4979704,251,0,0,0,540,0.036277898,-7.5,6.7487217,0.058904
1.9,1.70E+18,0.070300005,-0.011600001,0.046,1.340000033,-9.600000381,234.6000061,3.582955618,0.066104509,-0.109717598,-11.67648271,268.5397051,0.119527287,-6.886524387,107.6102024,-1,0,0,0,20.5202713,2866,59.81999969,36.99000168,935.2000122,0.071250619,250.4979704,251,0,0,0,530,0.036277898,-10,6.6104509,-1.382708
2,1.70E+18,0.070300005,-0.011600001,0.046,1.340000033,-9.600000381,234.6000061,3.590116043,0.06681972,-0.083810757,-11.57192098,268.4910768,0.162641061,-6.886524266,107.6102036,-1,0,0,0,20.5202713,2866,59.81999969,36.99000168,935.2000122,0.071250619,250.4979704,251,0,0,0,530,0.036277898,-10,6.681972,0.715211
2.1,1.70E+18,0.070300005,-0.011600001,0.046,1.340000033,-9.600000381,234.6000061,3.597275515,0.069265023,-0.057667687,-11.46829973,268.4469041,0.133807621,-6.886524205,107.6102041,-1,0,0,0,20.5202713,2866,59.81999969,36.99000168,935.2000122,0.071250619,250.4979704,251,0,0,0,530,0.036277898,-10,6.9265023,2.445303
2.2,1.70E+18,0.070300005,-0.011600001,0.046,1.340000033,-9.600000381,234.6000061,3.597275515,0.066246696,-0.02154657,-11.36188864,268.4046174,0.284267201,-6.886524085,107.6102053,-1,0,0,0,20.51632118,2906,59.81999969,36.99000168,935.2000122,0.071250619,250.4979704,251,0,0,0,530,0.036277898,-10,6.6246696,-3.018327
2.3,1.70E+18,0.071400002,0.0001,0.036900003,1.340000033,-9.600000381,234.6000061,3.605457802,0.066246696,-0.009251238,-11.30769008,268.3892554,0.154573212,-6.886523964,107.6102064,-1,0,0,0,20.51632118,2906,59.81999969,36.99000168,935.2000122,0.071400072,250.4979704,251,0,0,0,530,0.036277898,-10,6.6246696,0
2.4,1.70E+18,0.071400002,0.0001,0.036900003,1.309999943,-8.739999771,233.5,3.613639135,0.067838095,0.048780711,-11.14070207,268.3275612,0.25415847,-6.886523784,107.6102081,-1,0,0,0,20.51632118,2906,59.81999969,36.99000168,935.2000122,0.071400072,250.4979704,251,0,0,0,522.5,0.036277898,-7.5,6.7838095,1.591399
2.5,1.70E+18,0.071400002,0.0001,0.036900003,1.309999943,-8.739999771,233.5,3.612617273,0.063552767,0.087862686,-11.02333919,268.2910968,0.275663311,-6.886523665,107.6102093,-1,0,0,0,20.51632118,2906,59.81999969,36.99000168,935.2000122,0.071400072,250.4979704,251,0,0,0,522.5,0.036277898,-7.5,6.3552767,-4.285328
2.6,1.70E+18,0.071400002,0.0001,0.036900003,1.309999943,-8.739999771,233.5,3.620799561,0.062620327,0.129001187,-10.90714914,268.2646369,0.333600867,-6.886523605,107.6102098,-1,0,0,0,20.51632118,2906,59.81999969,36.99000168,934.7000122,0.071400072,250.4979704,251,0,0,0,522.5,0.036277898,-7.5,6.2620327,-0.93244
2.7,1.70E+18,0.071400002,0.0001,0.036900003,1.309999943,-8.739999771,233.5,3.632050056,0.068209738,0.174044213,-10.79700261,268.2323,0.376305943,-6.886523427,107.6102115,-1,0,0,0,20.51632118,2906,59.81999969,36.99000168,934.7000122,0.071400072,250.4979704,251,0,0,0,522.5,0.036277898,-7.5,6.8209738,5.589411
2.8,1.70E+18,0.071400002,0.0001,0.036900003,1.309999943,-8.739999771,233.5,3.630005379,0.064278618,0.210909852,-10.6804555,268.2046374,0.333176914,-6.886523369,107.6102121,-1,0,0,0,20.51632118,2906,59.81999969,36.99000168,934.7000122,0.071400072,250.4979704,251,0,0,0,522.5,0.036277898,-7.5,6.4278618,-3.93112
2.9,1.70E+18,0.071400002,0.0001,0.036900003,1.309999943,-8.739999771,233.5,3.642277975,0.066935167,0.246035659,-10.56711765,268.1825237,0.297139055,-6.886523193,107.6102139,-1,0,0,0,20.51632118,2906,59.77999878,36.99000168,934.7000122,0.071400072,250.4979704,251,0,0,0,512.5,0.036277898,-10,6.6935167,2.656549
3,1.70E+18,0.071400002,0.0001,0.036900003,1.309999943,-8.739999771,233.5,3.639208813,0.061096001,0.280752034,-10.45801922,268.1645375,0.333313801,-6.886523077,107.6102151,-1,0,0,0,20.51632118,2906,59.77999878,36.99000168,934.7000122,0.071400072,250.4979704,251,0,0,0,512.5,0.036277898,-10,6.1096001,-5.839166
3.1,1.70E+18,0.071400002,0.0001,0.036900003,1.309999943,-8.739999771,233.5,3.644322653,0.060669031,0.315107906,-10.34494276,268.1481367,0.334566922,-6.886523019,107.6102156,-1,0,0,0,20.51632118,2906,59.77999878,36.99000168,934.7000122,0.071400072,250.4979704,251,0,0,0,512.5,0.036277898,-10,6.0669031,-0.42697
3.2,1.70E+18,0.071400002,0.0001,0.036900003,1.309999943,-8.739999771,233.5,3.650460978,0.06125553,0.343840216,-10.22546743,268.1354262,0.234339033,-6.886522904,107.6102168,-1,0,0,0,20.51641083,2906,59.77999878,36.99000168,934.7000122,0.071400072,250.4979704,251,0,0,0,512.5,0.036277898,-10,6.125553,0.586499
3.3,1.70E+18,0.071800001,0.0009,0.035299998,1.860000014,-7.559999943,232.6999969,3.656596918,0.062403124,0.355639934,-10.17095111,268.1347428,0.201866459,-6.88652279,107.610218,-1,0,0,0,20.51641083,2906,59.77999878,36.99000168,934.7000122,0.071805641,250.4979704,251,0,0,0,512.5,0.036277898,-10,6.2403124,1.147594
3.4,1.70E+18,0.071800001,0.0009,0.035299998,1.860000014,-7.559999943,232.6999969,3.66375639,0.064040102,0.38013036,-10.05892788,268.1277998,0.204049037,-6.886522677,107.6102192,-1,0,0,0,20.51641083,2906,59.77999878,36.99000168,934.7000122,0.071805641,250.4979704,251,0,0,0,505,0.036277898,-7.5,6.4040102,1.636978
3.5,1.70E+18,0.071800001,0.0009,0.035299998,1.860000014,-7.559999943,232.6999969,3.666824837,0.060538605,0.417121914,-9.884574895,268.1246563,0.215409693,-6.886522508,107.610221,-1,0,0,0,20.51641083,2906,59.77999878,36.99000168,934.7000122,0.071805641,250.4979704,251,0,0,0,505,0.036277898,-7.5,6.0538605,-3.501497
3.6,1.70E+18,0.071800001,0.0009,0.035299998,1.860000014,-7.559999943,232.6999969,3.673984308,0.06160583,0.436856438,-9.764294905,268.1259684,0.161356281,-6.886522452,107.6102217,-1,0,0,0,20.51641083,2906,59.77999878,36.99000168,934.5,0.071805641,250.4979704,251,0,0,0,505,0.036277898,-7.5,6.160583,1.067225
3.7,1.70E+18,0.071800001,0.0009,0.035299998,1.860000014,-7.559999943,232.6999969,3.677052755,0.061701942,0.454721344,-9.650362525,268.1266517,0.115182258,-6.886522285,107.6102235,-1,0,0,0,20.51641083,2906,59.77999878,36.99000168,934.5,0.071805641,250.4979704,251,0,0,0,505,0.036277898,-7.5,6.1701942,0.096112
3.8,1.70E+18,0.071800001,0.0009,0.035299998,1.860000014,-7.559999943,232.6999969,3.676030655,0.058240794,0.470749785,-9.530097911,268.1368749,0.133281069,-6.886522174,107.6102247,-1,0,0,0,20.51641083,2906,59.77999878,36.99000168,934.5,0.071805641,250.4979704,251,0,0,0,505,0.036277898,-7.5,5.8240794,-3.461148
3.9,1.70E+18,0.071800001,0.0009,0.035299998,1.860000014,-7.559999943,232.6999969,3.684212227,0.06030504,0.48189526,-9.410201459,268.1487381,0.108292908,-6.886522062,107.6102259,-1,0,0,0,20.51641083,2906,59.77999878,37.00999832,934.5,0.071805641,250.4979704,251,0,0,0,495,0.036277898,-10,6.030504,2.064246
4,1.70E+18,0.071800001,0.0009,0.035299998,1.860000014,-7.559999943,232.6999969,3.688303251,0.057691827,0.488198505,-9.290966164,268.1668883,0.058008189,-6.886521952,107.6102271,-1,0,0,0,20.51641083,2906,59.77999878,37.00999832,934.5,0.071805641,250.4979704,251,0,0,0,495,0.036277898,-10,5.7691827,-2.613213
4.1,1.70E+18,0.071800001,0.0009,0.035299998,1.860000014,-7.559999943,232.6999969,3.689326067,0.058306802,0.48867275,-9.170031851,268.1850931,0.022365399,-6.886521898,107.6102278,-1,0,0,0,20.51641083,2906,59.77999878,37.00999832,934.5,0.071805641,250.4979704,251,0,0,0,495,0.036277898,-10,5.8306802,0.614975
4.2,1.70E+18,0.071800001,0.0009,0.035299998,1.860000014,-7.559999943,232.6999969,3.69853117,0.059003983,0.498679621,-9.054096356,268.2043367,0.145511854,-6.886521733,107.6102296,-1,0,0,0,20.5283699,2900,59.77999878,37.00999832,934.5,0.071805641,250.4979704,251,0,0,0,495,0.036277898,-10,5.9003983,0.697181
4.3,1.70E+18,0.061900001,-0.0035,0.030200001,2.220000029,-6.239999771,231.8999939,3.701600332,0.058080155,0.499828422,-8.939173951,268.225521,-0.00258364,-6.886521624,107.6102308,-1,0,0,0,20.5283699,2900,59.77999878,37.00999832,934.5,0.061998872,250.4979704,251,0,0,0,495,0.036277898,-10,5.8080155,-0.923828
4.4,1.70E+18,0.061900001,-0.0035,0.030200001,2.220000029,-6.239999771,231.8999939,3.704667826,0.055774678,0.496300975,-8.824507807,268.2470881,0.013841636,-6.886521515,107.6102321,-1,0,0,0,20.5283699,2900,59.77999878,37.00999832,934.5,0.061998872,250.4979704,251,0,0,0,487.5,0.036277898,-7.5,5.5774678,-2.305477
4.5,1.70E+18,0.061900001,-0.0035,0.030200001,2.220000029,-6.239999771,231.8999939,3.708759089,0.057993289,0.497701661,-8.704834303,268.273712,0.036688995,-6.886521403,107.6102333,-1,0,0,0,20.5283699,2900,59.77999878,37.00999832,934.5,0.061998872,250.4979704,251,0,0,0,487.5,0.036277898,-7.5,5.7993289,2.218611
4.6,1.70E+18,0.061900001,-0.0035,0.030200001,2.220000029,-6.239999771,231.8999939,3.717963953,0.058576606,0.496613615,-8.593782308,268.302796,0.015039617,-6.88652135,107.610234,-1,0,0,0,20.5283699,2900,59.77999878,37.00999832,934.2000122,0.061998872,250.4979704,251,0,0,0,487.5,0.036277898,-7.5,5.8576606,0.583317
4.7,1.70E+18,0.061900001,-0.0035,0.030200001,2.220000029,-6.239999771,231.8999939,3.717963953,0.052910313,0.496498404,-8.479416845,268.3342581,-0.002779863,-6.886521242,107.6102352,-1,0,0,0,20.5283699,2900,59.77999878,37.00999832,934.2000122,0.061998872,250.4979704,251,0,0,0,487.5,0.036277898,-7.5,5.2910313,-5.666293
4.8,1.70E+18,0.061900001,-0.0035,0.030200001,2.220000029,-6.239999771,231.8999939,3.717963953,0.049810298,0.50151201,-8.365596366,268.367907,0.076963189,-6.886521078,107.6102371,-1,0,0,0,20.5283699,2900,59.77999878,37.00999832,934.2000122,0.061998872,250.4979704,251,0,0,0,487.5,0.036277898,-7.5,4.9810298,-3.100015
4.9,1.70E+18,0.061900001,-0.0035,0.030200001,2.220000029,-6.239999771,231.8999939,3.730237503,0.057922926,0.504003357,-8.25491595,268.4018566,0.064238359,-6.886521022,107.6102377,-1,0,0,0,20.5283699,2900,59.75999832,37.00999832,934.2000122,0.061998872,250.4979704,251,0,0,0,477.5,0.036277898,-10,5.7922926,8.112628
5,1.70E+18,0.061900001,-0.0035,0.030200001,2.220000029,-6.239999771,231.8999939,3.729214687,0.054951198,0.503849226,-8.148253723,268.4376103,0.041690819,-6.88652086,107.6102397,-1,0,0,0,20.5283699,2900,59.75999832,37.00999832,934.2000122,0.061998872,250.4979704,251,0,0,0,477.5,0.036277898,-10,5.4951198,-2.971728
5.1,1.70E+18,0.061900001,-0.0035,0.030200001,2.220000029,-6.239999771,231.8999939,3.739442606,0.057545409,0.498725481,-8.036347521,268.4790223,0.006098599,-6.886520748,107.6102409,-1,0,0,0,20.5283699,2900,59.75999832,37.00999832,934.2000122,0.061998872,250.4979704,251,0,0,0,477.5,0.036277898,-10,5.7545409,2.594211
5.2,1.70E+18,0.061900001,-0.0035,0.030200001,2.220000029,-6.239999771,231.8999939,3.740465183,0.054067012,0.497954826,-7.932316251,268.5217736,-0.041891281,-6.886520639,107.6102422,-1,0,0,0,20.65390015,1254,59.75999832,37.00999832,934.2000122,0.061998872,250.4979704,251,0,0,0,477.5,0.036277898,-10,5.4067012,-3.478397
5.3,1.70E+18,0.054900002,-0.01,0.027100001,2.039999962,-5.150000095,283.7000122,3.744556446,0.05240323,0.495311751,-7.819078341,268.5646616,0.024167177,-6.886520529,107.6102435,-1,0,0,0,20.65390015,1254,59.75999832,37.00999832,934.2000122,0.055803317,250.4979704,251,0,0,0,477.5,0.036277898,-10,5.240323,-1.663782
5.4,1.70E+18,0.054900002,-0.01,0.027100001,2.039999962,-5.150000095,283.7000122,3.751715202,0.05458568,0.497122669,-7.705010142,268.6116225,0.073307438,-6.886520475,107.6102442,-1,0,0,0,20.65390015,1254,59.75999832,37.00999832,934.2000122,0.055803317,250.4979704,251,0,0,0,477.5,0.036277898,-10,5.458568,2.18245
5.5,1.70E+18,0.054900002,-0.01,0.027100001,2.039999962,-5.150000095,283.7000122,3.749670286,0.051295131,0.489214317,-7.592681107,268.6540731,-0.075908397,-6.886520309,107.6102461,-1,0,0,0,20.65390015,1254,59.75999832,37.00999832,934.2000122,0.055803317,250.4979704,251,0,0,0,477.5,0.036277898,-10,5.1295131,-3.290549
5.6,1.70E+18,0.054900002,-0.01,0.027100001,2.039999962,-5.150000095,283.7000122,3.761942883,0.054529455,0.483439292,-7.479790005,268.6899088,-0.014539719,-6.886520198,107.6102474,-1,0,0,0,20.65390015,1254,59.75999832,37.00999832,934.4000244,0.055803317,250.4979704,251,0,0,0,477.5,0.036277898,-10,5.4529455,3.234324
5.7,1.70E+18,0.054900002,-0.01,0.027100001,2.039999962,-5.150000095,283.7000122,3.757853527,0.050235569,0.478917122,-7.425715304,268.7138539,-0.047023057,-6.886520141,107.6102481,-1,0,0,0,20.65390015,1254,59.75999832,37.00999832,934.4000244,0.055803317,250.4979704,251,0,0,0,477.5,0.036277898,-10,5.0235569,-4.293886
5.8,1.70E+18,0.054900002,-0.01,0.027100001,2.039999962,-5.150000095,283.7000122,3.760921021,0.050118044,0.467501877,-7.264642674,268.7686872,-0.001345893,-6.886519973,107.61025,-1,0,0,0,20.65390015,1254,59.75999832,37.00999832,934.4000244,0.055803317,250.4979704,251,0,0,0,477.5,0.036277898,-10,5.0118044,-0.117525
5.9,1.70E+18,0.054900002,-0.01,0.027100001,2.039999962,-5.150000095,283.7000122,3.771148939,0.053205829,0.460467806,-7.15505607,268.8052062,-0.0205114,-6.886519861,107.6102513,-1,0,0,0,20.65390015,1254,59.72999954,37.00999832,934.4000244,0.055803317,250.4979704,251,0,0,0,475,0.036277898,-2.5,5.3205829,3.087785
6,1.70E+18,0.054900002,-0.01,0.027100001,2.039999962,-5.150000095,283.7000122,3.769103308,0.051680345,0.451425868,-7.047652819,268.8436113,-0.073997156,-6.88651975,107.6102526,-1,0,0,0,20.65390015,1254,59.72999954,37.00999832,934.4000244,0.055803317,250.4979704,251,0,0,0,475,0.036277898,-2.5,5.1680345,-1.525484
6.1,1.70E+18,0.054900002,-0.01,0.027100001,2.039999962,-5.150000095,283.7000122,3.773195286,0.048944246,0.434353132,-6.939832714,268.8805131,-0.12450228,-6.886519638,107.610254,-1,0,0,0,20.65390015,1254,59.72999954,37.00999832,934.4000244,0.055803317,250.4979704,251,0,0,0,475,0.036277898,-2.5,4.8944246,-2.736099
6.2,1.70E+18,0.054900002,-0.01,0.027100001,2.039999962,-5.150000095,283.7000122,3.780353804,0.050545599,0.419171744,-6.831477877,268.9232917,-0.106837286,-6.886519526,107.6102553,-1,0,0,0,20.5362606,2846,59.72999954,37.00999832,934.4000244,0.055803317,250.4979704,251,0,0,0,475,0.036277898,-2.5,5.0545599,1.601353
6.3,1.70E+18,0.0515,-0.0023,0.029999999,1.940000057,-4.039999962,230.3999939,3.78239872,0.050446007,0.404437933,-6.72367144,268.9596468,-0.09743827,-6.886519411,107.6102566,-1,0,0,0,20.5362606,2846,59.72999954,37.00999832,934.4000244,0.051551334,250.4979704,251,0,0,0,475,0.036277898,-2.5,5.0446007,-0.099592
6.4,1.70E+18,0.0515,-0.0023,0.029999999,1.940000057,-4.039999962,230.3999939,3.786490698,0.050409567,0.385430312,-6.618004363,268.9968492,-0.146525758,-6.8865193,107.6102579,-1,0,0,0,20.5362606,2846,59.72999954,37.00999832,934.4000244,0.051551334,250.4979704,251,0,0,0,465,0.036277898,-10,5.0409567,-0.03644
6.5,1.70E+18,0.0515,-0.0023,0.029999999,1.940000057,-4.039999962,230.3999939,3.789558907,0.047142282,0.369793258,-6.51250941,269.0312908,-0.15927538,-6.886519188,107.6102593,-1,0,0,0,20.5362606,2846,59.72999954,37.00999832,934.4000244,0.051551334,250.4979704,251,0,0,0,465,0.036277898,-10,4.7142282,-3.267285
6.6,1.70E+18,0.0515,-0.0023,0.029999999,1.940000057,-4.039999962,230.3999939,3.7926264,0.04872556,0.354258788,-6.414003148,269.0686572,-0.125087452,-6.886519076,107.6102606,-1,0,0,0,20.5362606,2846,59.72999954,37.00999832,933.9000244,0.051551334,250.4979704,251,0,0,0,465,0.036277898,-10,4.872556,1.583278
6.7,1.70E+18,0.0515,-0.0023,0.029999999,1.940000057,-4.039999962,230.3999939,3.799786825,0.050314382,0.330396952,-6.317188643,269.1038915,-0.212869242,-6.886518963,107.610262,-1,0,0,0,20.5362606,2846,59.72999954,37.00999832,933.9000244,0.051551334,250.4979704,251,0,0,0,465,0.036277898,-10,5.0314382,1.588822
6.8,1.70E+18,0.0515,-0.0023,0.029999999,1.940000057,-4.039999962,230.3999939,3.803878803,0.052292913,0.306372308,-6.214940529,269.1363924,-0.218773492,-6.886518851,107.6102634,-1,0,0,0,20.5362606,2846,59.72999954,37.00999832,933.9000244,0.051551334,250.4979704,251,0,0,0,465,0.036277898,-10,5.2292913,1.978531
6.9,1.70E+18,0.0515,-0.0023,0.029999999,1.940000057,-4.039999962,230.3999939,3.807968159,0.048151717,0.285844066,-6.113594457,269.1692759,-0.18756752,-6.886518735,107.6102647,-1,0,0,0,20.5362606,2846,59.72999954,37.00999832,933.9000244,0.051551334,250.4979704,251,0,0,0,457.5,0.036277898,-7.5,4.8151717,-4.141196
7,1.70E+18,0.0515,-0.0023,0.029999999,1.940000057,-4.039999962,230.3999939,3.806946297,0.048159774,0.25978828,-6.015589615,269.1802918,-0.183990863,-6.886518622,107.610266,-1,0,0,0,20.5362606,2846,59.72999954,37.00999832,933.9000244,0.051551334,250.4979704,251,0,0,0,457.5,0.036277898,-7.5,4.8159774,0.008057
7.1,1.70E+18,0.0515,-0.0023,0.029999999,1.940000057,-4.039999962,230.3999939,3.815128584,0.04703711,0.241849566,-5.92007991,269.2145967,-0.143109238,-6.886518509,107.6102674,-1,0,0,0,20.5362606,2846,59.72999954,37.00999832,933.9000244,0.051551334,250.4979704,251,0,0,0,457.5,0.036277898,-7.5,4.703711,-1.122664
7.2,1.70E+18,0.0515,-0.0023,0.029999999,1.940000057,-4.039999962,230.3999939,3.818196077,0.048006184,0.220922823,-5.823213726,269.2446375,-0.187786851,-6.886518396,107.6102688,-1,0,0,0,20.52828026,2846,59.72999954,37.00999832,933.9000244,0.051551334,250.4979704,251,0,0,0,457.5,0.036277898,-7.5,4.8006184,0.969074
7.3,1.70E+18,0.0504,-0.0039,0.0275,1.730000019,-2.980000019,229.6000061,3.817174215,0.045423634,0.204356645,-5.722723569,269.2744049,-0.124561861,-6.886518282,107.6102702,-1,0,0,0,20.52828026,2846,59.72999954,37.00999832,933.9000244,0.050550668,250.4979704,251,0,0,0,457.5,0.036277898,-7.5,4.5423634,-2.58255
7.4,1.70E+18,0.0504,-0.0039,0.0275,1.730000019,-2.980000019,229.6000061,3.823310156,0.047801912,0.191658542,-5.625808695,269.3040356,-0.073111417,-6.886518168,107.6102716,-1,0,0,0,20.52828026,2846,59.72999954,37.00999832,933.9000244,0.050550668,250.4979704,251,0,0,0,447.5,0.036277898,-10,4.7801912,2.378278
7.5,1.70E+18,0.0504,-0.0039,0.0275,1.730000019,-2.980000019,229.6000061,3.828423996,0.04837168,0.180180407,-5.528756293,269.3336663,-0.104932832,-6.88651805,107.6102729,-1,0,0,0,20.52828026,2846,59.72999954,37.00999832,933.9000244,0.050550668,250.4979704,251,0,0,0,447.5,0.036277898,-10,4.837168,0.569768
7.6,1.70E+18,0.0504,-0.0039,0.0275,1.730000019,-2.980000019,229.6000061,3.833537836,0.048688527,0.177514508,-5.43625425,269.3641444,0.037963408,-6.886517996,107.6102737,-1,0,0,0,20.52828026,2846,59.72999954,37.00999832,933.5,0.050550668,250.4979704,251,0,0,0,447.5,0.036277898,-10,4.8688527,0.316847
7.7,1.70E+18,0.0504,-0.0039,0.0275,1.730000019,-2.980000019,229.6000061,3.833537836,0.046669699,0.167010181,-5.341532124,269.3948138,-0.098366832,-6.886517823,107.6102758,-1,0,0,0,20.52828026,2846,59.72999954,37.00999832,933.5,0.050550668,250.4979704,251,0,0,0,447.5,0.036277898,-10,4.6669699,-2.018828
7.8,1.70E+18,0.0504,-0.0039,0.0275,1.730000019,-2.980000019,229.6000061,3.838651915,0.047674075,0.159271015,-5.239815754,269.426194,-0.0375154,-6.88651771,107.6102772,-1,0,0,0,20.52828026,2846,59.72999954,37.00999832,933.5,0.050550668,250.4979704,251,0,0,0,447.5,0.036277898,-10,4.7674075,1.004376
7.9,1.70E+18,0.0504,-0.0039,0.0275,1.730000019,-2.980000019,229.6000061,3.844790001,0.045681346,0.147779293,-5.138422701,269.4585581,-0.059192867,-6.886517596,107.6102786,-1,0,0,0,20.52828026,2846,59.70999908,37.00999832,933.5,0.050550668,250.4979704,251,0,0,0,440,0.036277898,-7.5,4.5681346,-1.992729
8,1.70E+18,0.0504,-0.0039,0.0275,1.730000019,-2.980000019,229.6000061,3.846834917,0.047425058,0.145898223,-5.045338943,269.4608543,0.032891115,-6.886517483,107.61028,-1,0,0,0,20.52828026,2846,59.70999908,37.00999832,933.5,0.050550668,250.4979704,251,0,0,0,440,0.036277898,-7.5,4.7425058,1.743712
8.1,1.70E+18,0.0504,-0.0039,0.0275,1.730000019,-2.980000019,229.6000061,3.848879595,0.04468473,0.143155218,-4.949061734,269.4887902,0.010100971,-6.886517424,107.6102807,-1,0,0,0,20.52828026,2846,59.70999908,37.00999832,933.5,0.050550668,250.4979704,251,0,0,0,440,0.036277898,-7.5,4.468473,-2.740328
8.2,1.70E+18,0.0504,-0.0039,0.0275,1.730000019,-2.980000019,229.6000061,3.851948757,0.04468473,0.145814003,-4.899718484,269.5027856,0.068056396,-6.886517311,107.6102822,-1,0,0,0,20.51252174,2906,59.70999908,37.00999832,933.5,0.050550668,250.4979704,251,0,0,0,440,0.036277898,-7.5,4.468473,0
8.3,1.70E+18,0.048799999,-0.0023,0.025799999,1.330000043,-2.049999952,228.8999939,3.85604002,0.045403976,0.143370158,-4.753411243,269.5394139,-0.020227379,-6.886517198,107.6102836,-1,0,0,0,20.51252174,2906,59.70999908,37.00999832,933.5,0.04885417,250.4979704,251,0,0,0,440,0.036277898,-7.5,4.5403976,0.719246
8.4,1.70E+18,0.048799999,-0.0023,0.025799999,1.330000043,-2.049999952,228.8999939,3.858085413,0.044368912,0.143269629,-4.657998491,269.5655185,0.029462263,-6.886517026,107.6102858,-1,0,0,0,20.51252174,2906,59.70999908,37.00999832,933.5,0.04885417,250.4979704,251,0,0,0,432.5,0.036277898,-7.5,4.4368912,-1.035064
8.5,1.70E+18,0.048799999,-0.0023,0.025799999,1.330000043,-2.049999952,228.8999939,3.860131998,0.04379091,0.148881006,-4.561940813,269.6032949,0.062620805,-6.886516913,107.6102872,-1,0,0,0,20.51252174,2906,59.70999908,37.00999832,933.5,0.04885417,250.4979704,251,0,0,0,432.5,0.036277898,-7.5,4.379091,-0.578002
8.6,1.70E+18,0.048799999,-0.0023,0.025799999,1.330000043,-2.049999952,228.8999939,3.8662677,0.043451875,0.158826801,-4.45928567,269.6293995,0.125375814,-6.8865168,107.6102887,-1,0,0,0,20.51252174,2906,59.70999908,37.00999832,933,0.04885417,250.4979704,251,0,0,0,432.5,0.036277898,-7.5,4.3451875,-0.339035
8.7,1.70E+18,0.048799999,-0.0023,0.025799999,1.330000043,-2.049999952,228.8999939,3.867290516,0.041823041,0.166238846,-4.360011476,269.6517592,0.109304155,-6.886516682,107.6102901,-1,0,0,0,20.51252174,2906,59.70999908,37.00999832,933,0.04885417,250.4979704,251,0,0,0,432.5,0.036277898,-7.5,4.1823041,-1.628834
8.8,1.70E+18,0.048799999,-0.0023,0.025799999,1.330000043,-2.049999952,228.8999939,3.8662677,0.039165907,0.176018312,-4.263048766,269.676579,0.103516024,-6.886516569,107.6102916,-1,0,0,0,20.51252174,2906,59.70999908,37.00999832,933,0.04885417,250.4979704,251,0,0,0,432.5,0.036277898,-7.5,3.9165907,-2.657134
8.9,1.70E+18,0.048799999,-0.0023,0.025799999,1.330000043,-2.049999952,228.8999939,3.872404594,0.042874355,0.184038872,-4.167467308,269.6994034,0.061206899,-6.886516456,107.610293,-1,0,0,0,20.51252174,2906,59.72000122,37.00999832,933,0.04885417,250.4979704,251,0,0,0,422.5,0.036277898,-10,4.2874355,3.708448
9,1.70E+18,0.048799999,-0.0023,0.025799999,1.330000043,-2.049999952,228.8999939,3.877518435,0.043738794,0.194537326,-4.067534522,269.6984741,0.127401832,-6.886516343,107.6102945,-1,0,0,0,20.51252174,2906,59.72000122,37.00999832,933,0.04885417,250.4979704,251,0,0,0,422.5,0.036277898,-10,4.3738794,0.864439
9.1,1.70E+18,0.048799999,-0.0023,0.025799999,1.330000043,-2.049999952,228.8999939,3.881609459,0.041711044,0.206348055,-3.971852694,269.7282688,0.121773477,-6.88651623,107.610296,-1,0,0,0,20.51252174,2906,59.72000122,37.00999832,933,0.04885417,250.4979704,251,0,0,0,422.5,0.036277898,-10,4.1711044,-2.02775
9.2,1.70E+18,0.048799999,-0.0023,0.025799999,1.330000043,-2.049999952,228.8999939,3.888769169,0.046129145,0.218268482,-3.867985859,269.7479224,0.196186692,-6.886516116,107.6102975,-1,0,0,0,20.65790939,1234,59.72000122,37.00999832,933,0.04885417,250.4979704,251,0,0,0,422.5,0.036277898,-10,4.6129145,4.418101
9.3,1.70E+18,0.043400001,-0.0077,0.023799999,1.639999986,-1.129999995,283.2999878,3.885701437,0.041292347,0.232337921,-3.769785403,269.7899357,0.129737967,-6.886515997,107.6102989,-1,0,0,0,20.65790939,1234,59.72000122,37.00999832,933,0.044077773,250.4979704,251,0,0,0,422.5,0.036277898,-10,4.1292347,-4.836798
9.4,1.70E+18,0.043400001,-0.0077,0.023799999,1.639999986,-1.129999995,283.2999878,3.891837378,0.042720776,0.241936988,-3.672382349,269.818801,0.082249354,-6.886515883,107.6103004,-1,0,0,0,20.65790939,1234,59.72000122,37.00999832,933,0.044077773,250.4979704,251,0,0,0,422.5,0.036277898,-10,4.2720776,1.428429
9.5,1.70E+18,0.043400001,-0.0077,0.023799999,1.639999986,-1.129999995,283.2999878,3.890815516,0.039683778,0.258769825,-3.572980452,269.8501538,0.177021858,-6.886515769,107.6103019,-1,0,0,0,20.65790939,1234,59.72000122,37.00999832,933,0.044077773,250.4979704,251,0,0,0,422.5,0.036277898,-10,3.9683778,-3.036998
9.6,1.70E+18,0.043400001,-0.0077,0.023799999,1.639999986,-1.129999995,283.2999878,3.895929356,0.041336711,0.271653851,-3.476802117,269.8751923,0.185802101,-6.886515654,107.6103034,-1,0,0,0,20.65790939,1234,59.72000122,37.00999832,933.0999756,0.044077773,250.4979704,251,0,0,0,422.5,0.036277898,-10,4.1336711,1.652933
9.7,1.70E+18,0.043400001,-0.0077,0.023799999,1.639999986,-1.129999995,283.2999878,3.895929356,0.039714426,0.284127912,-3.38126999,269.8985908,0.121821099,-6.88651554,107.6103049,-1,0,0,0,20.65790939,1234,59.72000122,37.00999832,933.0999756,0.044077773,250.4979704,251,0,0,0,422.5,0.036277898,-10,3.9714426,-1.622285
9.8,1.70E+18,0.043400001,-0.0077,0.023799999,1.639999986,-1.129999995,283.2999878,3.901043196,0.039702088,0.292737835,-3.285671448,269.92475,0.09774796,-6.886515425,107.6103064,-1,0,0,0,20.65790939,1234,59.72000122,37.00999832,933.0999756,0.044077773,250.4979704,251,0,0,0,422.5,0.036277898,-10,3.9702088,-0.012338
9.9,1.70E+18,0.043400001,-0.0077,0.023799999,1.639999986,-1.129999995,283.2999878,3.901043196,0.036631752,0.303713296,-3.187487222,269.9111647,0.114329666,-6.886515306,107.6103079,-1,0,0,0,20.65790939,1234,59.72000122,37.02000046,933.0999756,0.044077773,250.4979704,251,0,0,0,415,0.036277898,-7.5,3.6631752,-3.070336
10,1.70E+18,0.043400001,-0.0077,0.023799999,1.639999986,-1.129999995,283.2999878,3.907179136,0.038671408,0.313639792,-3.090202476,269.9370779,0.062135869,-6.886515192,107.6103094,-1,0,0,0,20.65790939,1234,59.72000122,37.02000046,933.0999756,0.044077773,250.4979704,251,0,0,0,415,0.036277898,-7.5,3.8671408,2.039656
10.1,1.70E+18,0.043400001,-0.0077,0.023799999,1.639999986,-1.129999995,283.2999878,3.912293215,0.040213458,0.327943216,-2.994210786,269.9630185,0.16868081,-6.886515078,107.6103109,-1,0,0,0,20.65790939,1234,59.72000122,37.02000046,933.0999756,0.044077773,250.4979704,251,0,0,0,415,0.036277898,-7.5,4.0213458,1.54205
10.2,1.70E+18,0.043400001,-0.0077,0.023799999,1.639999986,-1.129999995,283.2999878,3.911271114,0.038215745,0.340618389,-2.89494791,269.9885763,0.107484982,-6.886514964,107.6103124,-1,0,0,0,20.52420044,2826,59.72000122,37.02000046,933.0999756,0.044077773,250.4979704,251,0,0,0,415,0.036277898,-7.5,3.8215745,-1.997713
10.3,1.70E+18,0.046700001,-0.0088,0.0219,1.690000057,-0.100000001,228,3.913315792,0.03754776,0.352178742,-2.804293517,270.0145442,0.137241118,-6.886514905,107.6103131,-1,0,0,0,20.52420044,2826,59.72000122,37.02000046,933.0999756,0.04752189,250.4979704,251,0,0,0,415,0.036277898,-7.5,3.754776,-0.667985
10.4,1.70E+18,0.046700001,-0.0088,0.0219,1.690000057,-0.100000001,228,3.914338608,0.037015352,0.362347272,-2.711133308,270.0399107,0.099955316,-6.886514736,107.6103154,-1,0,0,0,20.52420044,2826,59.72000122,37.02000046,933.0999756,0.04752189,250.4979704,251,0,0,0,407.5,0.036277898,-7.5,3.7015352,-0.532408
10.5,1.70E+18,0.046700001,-0.0088,0.0219,1.690000057,-0.100000001,228,3.923543711,0.040173981,0.371864522,-2.617409322,270.0640472,0.083135706,-6.886514618,107.6103169,-1,0,0,0,20.52420044,2826,59.72000122,37.02000046,933.0999756,0.04752189,250.4979704,251,0,0,0,407.5,0.036277898,-7.5,4.0173981,3.158629
10.6,1.70E+18,0.046700001,-0.0088,0.0219,1.690000057,-0.100000001,228,3.926612873,0.038619492,0.376877488,-2.571076938,270.0785072,0.116375144,-6.886514563,107.6103177,-1,0,0,0,20.52420044,2826,59.72000122,37.02000046,932.9000244,0.04752189,250.4979704,251,0,0,0,407.5,0.036277898,-7.5,3.8619492,-1.554489
10.7,1.70E+18,0.046700001,-0.0088,0.0219,1.690000057,-0.100000001,228,3.927634974,0.038603559,0.386379096,-2.431356485,270.117213,0.040279983,-6.886514392,107.61032,-1,0,0,0,20.52420044,2826,59.72000122,37.02000046,932.9000244,0.04752189,250.4979704,251,0,0,0,407.5,0.036277898,-7.5,3.8603559,-0.015933
10.8,1.70E+18,0.046700001,-0.0088,0.0219,1.690000057,-0.100000001,228,3.932748814,0.040148262,0.387349688,-2.383425025,270.1341878,0.032327085,-6.886514338,107.6103208,-1,0,0,0,20.52420044,2826,59.72000122,37.02000046,932.9000244,0.04752189,250.4979704,251,0,0,0,407.5,0.036277898,-7.5,4.0148262,1.544703
10.9,1.70E+18,0.046700001,-0.0088,0.0219,1.690000057,-0.100000001,228,3.933771629,0.03797264,0.394101151,-2.236154452,270.1294316,0.080533025,-6.886514167,107.6103231,-1,0,0,0,20.52420044,2826,59.70999908,37.02000046,932.9000244,0.04752189,250.4979704,251,0,0,0,400,0.036277898,-7.5,3.797264,-2.175622
11,1.70E+18,0.046700001,-0.0088,0.0219,1.690000057,-0.100000001,228,3.930702467,0.034191355,0.396054935,-2.145032167,270.1588436,-0.007129594,-6.886514055,107.6103247,-1,0,0,0,20.52420044,2826,59.70999908,37.02000046,932.9000244,0.04752189,250.4979704,251,0,0,0,400,0.036277898,-7.5,3.4191355,-3.781285
11.1,1.70E+18,0.046700001,-0.0088,0.0219,1.690000057,-0.100000001,228,3.938885469,0.034729835,0.391258404,-2.059084025,270.1807933,-0.077377286,-6.886513937,107.6103262,-1,0,0,0,20.52420044,2826,59.70999908,37.02000046,932.9000244,0.04752189,250.4979704,251,0,0,0,400,0.036277898,-7.5,3.4729835,0.53848
11.2,1.70E+18,0.046700001,-0.0088,0.0219,1.690000057,-0.100000001,228,3.934794445,0.034093957,0.387108054,-1.964383041,270.2076086,-0.103421167,-6.886513825,107.6103278,-1,0,0,0,20.52418137,2846,59.70999908,37.02000046,932.9000244,0.04752189,250.4979704,251,0,0,0,400,0.036277898,-7.5,3.4093957,-0.635878
11.3,1.70E+18,0.0396,-0.0069,0.0208,1.730000019,0.819999993,227.5,3.940930386,0.03410469,0.377660341,-1.871161329,270.2351892,-0.061870551,-6.886513713,107.6103293,-1,0,0,0,20.52418137,2846,59.70999908,37.02000046,932.9000244,0.040196641,250.4979704,251,0,0,0,400,0.036277898,-7.5,3.410469,0.010733
11.4,1.70E+18,0.0396,-0.0069,0.0208,1.730000019,0.819999993,227.5,3.942976732,0.035680521,0.36402456,-1.78086378,270.2617311,-0.092764304,-6.886513602,107.6103309,-1,0,0,0,20.52418137,2846,59.70999908,37.02000046,932.9000244,0.040196641,250.4979704,251,0,0,0,390,0.036277898,-10,3.5680521,1.575831
11.5,1.70E+18,0.0396,-0.0069,0.0208,1.730000019,0.819999993,227.5,3.949113388,0.037392896,0.345720459,-1.686372397,270.295052,-0.204158736,-6.886513491,107.6103325,-1,0,0,0,20.52418137,2846,59.70999908,37.02000046,932.9000244,0.040196641,250.4979704,251,0,0,0,390,0.036277898,-10,3.7392896,1.712375
11.6,1.70E+18,0.0396,-0.0069,0.0208,1.730000019,0.819999993,227.5,3.950136204,0.035349809,0.327060634,-1.592187247,270.3278262,-0.17590258,-6.88651338,107.6103341,-1,0,0,0,20.52418137,2846,59.70999908,37.02000046,932.5,0.040196641,250.4979704,251,0,0,0,390,0.036277898,-10,3.5349809,-2.043087
11.7,1.70E+18,0.0396,-0.0069,0.0208,1.730000019,0.819999993,227.5,3.949113388,0.034811128,0.305182318,-1.498526686,270.3579763,-0.193637246,-6.886513264,107.6103356,-1,0,0,0,20.52418137,2846,59.70999908,37.02000046,932.5,0.040196641,250.4979704,251,0,0,0,390,0.036277898,-10,3.4811128,-0.538681
11.8,1.70E+18,0.0396,-0.0069,0.0208,1.730000019,0.819999993,227.5,3.953204412,0.034273818,0.281379342,-1.406403591,270.3909418,-0.248877952,-6.886513152,107.6103372,-1,0,0,0,20.52418137,2846,59.70999908,37.02000046,932.5,0.040196641,250.4979704,251,0,0,0,390,0.036277898,-10,3.4273818,-0.53731
11.9,1.70E+18,0.0396,-0.0069,0.0208,1.730000019,0.819999993,227.5,3.956272144,0.033993296,0.2513252,-1.317439031,270.3719443,-0.317794306,-6.886513041,107.6103388,-1,0,0,0,20.52418137,2846,59.70000076,37.02000046,932.5,0.040196641,250.4979704,251,0,0,0,390,0.036277898,-10,3.3993296,-0.280522
12,1.70E+18,0.0396,-0.0069,0.0208,1.730000019,0.819999993,227.5,3.954227228,0.031671766,0.222686026,-1.219868553,270.4037344,-0.255766488,-6.886512929,107.6103404,-1,0,0,0,20.52418137,2846,59.70000076,37.02000046,932.5,0.040196641,250.4979704,251,0,0,0,390,0.036277898,-10,3.1671766,-2.32153
12.1,1.70E+18,0.0396,-0.0069,0.0208,1.730000019,0.819999993,227.5,3.960363884,0.032172378,0.192814418,-1.132727832,270.4304404,-0.290269177,-6.886512817,107.610342,-1,0,0,0,20.52418137,2846,59.70000076,37.02000046,932.5,0.040196641,250.4979704,251,0,0,0,390,0.036277898,-10,3.2172378,0.500612
12.2,1.70E+18,0.0396,-0.0069,0.0208,1.730000019,0.819999993,227.5,3.965477962,0.035524148,0.155848663,-1.044547755,270.4553969,-0.40453969,-6.886512705,107.6103436,-1,0,0,0,20.51670074,3120,59.70000076,37.02000046,932.5,0.040196641,250.4979704,251,0,0,0,390,0.036277898,-10,3.5524148,3.35177
12.3,1.70E+18,0.038400002,-0.012800001,0.0187,1.590000033,1.769999981,227,3.967524309,0.035196539,0.12586749,-0.950588222,270.4791233,-0.319204068,-6.88651259,107.6103452,-1,0,0,0,20.51670074,3120,59.70000076,37.02000046,932.5,0.040477156,250.4979704,251,0,0,0,390,0.036277898,-10,3.5196539,-0.327609
12.4,1.70E+18,0.038400002,-0.012800001,0.0187,1.590000033,1.769999981,227,3.968546171,0.035189152,0.098814937,-0.856981423,270.500991,-0.294237315,-6.886512536,107.610346,-1,0,0,0,20.51670074,3120,59.70000076,37.02000046,932.5,0.040477156,250.4979704,251,0,0,0,387.5,0.036277898,-2.5,3.5189152,-0.007387
12.5,1.70E+18,0.038400002,-0.012800001,0.0187,1.590000033,1.769999981,227,3.968546171,0.030585146,0.070735321,-0.759418739,270.5256195,-0.232476783,-6.886512425,107.6103476,-1,0,0,0,20.51670074,3120,59.70000076,37.02000046,932.5,0.040477156,250.4979704,251,0,0,0,387.5,0.036277898,-2.5,3.0585146,-4.604006
12.6,1.70E+18,0.038400002,-0.012800001,0.0187,1.590000033,1.769999981,227,3.975705643,0.033420898,0.045836411,-0.664016878,270.5493459,-0.241385758,-6.886512257,107.61035,-1,0,0,0,20.51670074,3120,59.70000076,37.02000046,932.5999756,0.040477156,250.4979704,251,0,0,0,387.5,0.036277898,-2.5,3.3420898,2.835752
12.7,1.70E+18,0.038400002,-0.012800001,0.0187,1.590000033,1.769999981,227,3.971613903,0.028586702,0.021459961,-0.570701524,270.5726077,-0.200757752,-6.886512147,107.6103516,-1,0,0,0,20.51670074,3120,59.70000076,37.02000046,932.5999756,0.040477156,250.4979704,251,0,0,0,387.5,0.036277898,-2.5,2.8586702,-4.834196
12.8,1.70E+18,0.038400002,-0.012800001,0.0187,1.590000033,1.769999981,227,3.970591803,0.027028706,-0.000620192,-0.482661003,270.5949401,-0.227418438,-6.886512037,107.6103533,-1,0,0,0,20.51670074,3120,59.70000076,37.02000046,932.5999756,0.040477156,250.4979704,251,0,0,0,387.5,0.036277898,-2.5,2.7028706,-1.557996
12.9,1.70E+18,0.038400002,-0.012800001,0.0187,1.590000033,1.769999981,227,3.975705643,0.029053522,-0.012600438,-0.388239371,270.5599244,-0.106236505,-6.88651198,107.6103541,-1,0,0,0,20.51670074,3120,59.66999817,37.04000092,932.5999756,0.040477156,250.4979704,251,0,0,0,377.5,0.036277898,-10,2.9053522,2.024816
13,1.70E+18,0.038400002,-0.012800001,0.0187,1.590000033,1.769999981,227,3.982866068,0.031216042,-0.031135954,-0.292673449,270.5700382,-0.200996156,-6.886511813,107.6103565,-1,0,0,0,20.51670074,3120,59.66999817,37.04000092,932.5999756,0.040477156,250.4979704,251,0,0,0,377.5,0.036277898,-10,3.1216042,2.16252
13.1,1.70E+18,0.038400002,-0.012800001,0.0187,1.590000033,1.769999981,227,3.98388793,0.030622378,-0.037930488,-0.240391541,270.5828855,-0.136910754,-6.88651176,107.6103574,-1,0,0,0,20.51670074,3120,59.66999817,37.04000092,932.5999756,0.040477156,250.4979704,251,0,0,0,377.5,0.036277898,-10,3.0622378,-0.593664
13.2,1.70E+18,0.033500001,-0.0133,0.015699999,1.590000033,1.769999981,227,3.98388793,0.032726131,-0.052529334,-0.141918634,270.5989856,-0.123154075,-6.886511649,107.610359,-1,0,0,0,20.6539402,1214,59.66999817,37.04000092,932.5999756,0.036043585,250.4979704,251,0,0,0,377.5,0.036277898,-10,3.2726131,2.103753
13.3,1.70E+18,0.033500001,-0.0133,0.015699999,1.299999952,2.730000019,283.7999878,3.981841583,0.028632563,-0.060253144,-0.044569395,270.6149763,-0.035005654,-6.886511536,107.6103606,-1,0,0,0,20.6539402,1214,59.66999817,37.04000092,932.5999756,0.036043585,250.4979704,251,0,0,0,377.5,0.036277898,-10,2.8632563,-4.093568
13.4,1.70E+18,0.033500001,-0.0133,0.015699999,1.299999952,2.730000019,283.7999878,3.987979908,0.030698672,-0.068454276,0.051382858,270.6326072,-0.041545394,-6.886511426,107.6103623,-1,0,0,0,20.6539402,1214,59.66999817,37.04000092,932.5999756,0.036043585,250.4979704,251,0,0,0,377.5,0.036277898,-10,3.0698672,2.066109
13.5,1.70E+18,0.033500001,-0.0133,0.015699999,1.299999952,2.730000019,283.7999878,3.990024824,0.029175898,-0.076005476,0.190961803,270.6592857,-0.071869608,-6.88651126,107.6103647,-1,0,0,0,20.6539402,1214,59.66999817,37.04000092,932.5999756,0.036043585,250.4979704,251,0,0,0,377.5,0.036277898,-10,2.9175898,-1.522774
13.6,1.70E+18,0.033500001,-0.0133,0.015699999,1.299999952,2.730000019,283.7999878,3.989002008,0.029175691,-0.082404886,0.291255599,270.6707936,-0.102222021,-6.886511151,107.6103664,-1,0,0,0,20.6539402,1214,59.66999817,37.04000092,932.2000122,0.036043585,250.4979704,251,0,0,0,377.5,0.036277898,-10,2.9175691,-0.000207
13.7,1.70E+18,0.033500001,-0.0133,0.015699999,1.299999952,2.730000019,283.7999878,3.993093987,0.029155083,-0.086677488,0.38616493,270.6832035,-0.060937691,-6.886511042,107.610368,-1,0,0,0,20.6539402,1214,59.66999817,37.04000092,932.2000122,0.036043585,250.4979704,251,0,0,0,377.5,0.036277898,-10,2.9155083,-0.020608
13.8,1.70E+18,0.033500001,-0.0133,0.015699999,1.299999952,2.730000019,283.7999878,3.997183342,0.029763827,-0.088544423,0.477269838,270.6929893,-0.008111961,-6.886510933,107.6103697,-1,0,0,0,20.6539402,1214,59.66999817,37.04000092,932.2000122,0.036043585,250.4979704,251,0,0,0,377.5,0.036277898,-10,2.9763827,0.608744
13.9,1.70E+18,0.033500001,-0.0133,0.015699999,1.299999952,2.730000019,283.7999878,3.998207827,0.031378876,-0.0886457,0.570509862,270.6521514,0.022237536,-6.886510826,107.6103713,-1,0,0,0,20.6539402,1214,59.68999863,37.02000046,932.2000122,0.036043585,250.4979704,251,0,0,0,375,0.036277898,-2.5,3.1378876,1.615049
14,1.70E+18,0.033500001,-0.0133,0.015699999,1.299999952,2.730000019,283.7999878,4.002297421,0.032277346,-0.086810624,0.666500218,270.6640693,0.015860933,-6.88651072,107.610373,-1,0,0,0,20.6539402,1214,59.68999863,37.02000046,932.2000122,0.036043585,250.4979704,251,0,0,0,375,0.036277898,-2.5,3.2277346,0.89847
14.1,1.70E+18,0.033500001,-0.0133,0.015699999,1.299999952,2.730000019,283.7999878,3.999229689,0.026046699,-0.08963642,0.761370335,270.6765886,-0.050502278,-6.886510612,107.6103747,-1,0,0,0,20.6539402,1214,59.68999863,37.02000046,932.2000122,0.036043585,250.4979704,251,0,0,0,375,0.036277898,-2.5,2.6046699,-6.230647
14.2,1.70E+18,0.034000002,-0.0068,0.015699999,1.299999952,2.730000019,283.7999878,4.005366583,0.028204739,-0.087704811,0.850628207,270.6866204,0.016212041,-6.886510506,107.6103763,-1,0,0,0,20.52449036,2840,59.68999863,37.02000046,932.2000122,0.034673335,250.4979704,251,0,0,0,375,0.036277898,-2.5,2.8204739,2.15804
14.3,1.70E+18,0.034000002,-0.0068,0.015699999,1.350000024,3.779999971,225.8000031,4.005366583,0.027197929,-0.082696504,0.949098592,270.6991669,0.031209606,-6.886510402,107.610378,-1,0,0,0,20.52449036,2840,59.68999863,37.02000046,932.2000122,0.034673335,250.4979704,251,0,0,0,375,0.036277898,-2.5,2.7197929,-1.00681
14.4,1.70E+18,0.034000002,-0.0068,0.015699999,1.350000024,3.779999971,225.8000031,4.005366583,0.027197929,-0.077998614,1.045067753,270.7115495,0.057788504,-6.886510299,107.6103797,-1,0,0,0,20.52449036,2840,59.68999863,37.02000046,932.2000122,0.034673335,250.4979704,251,0,0,0,365,0.036277898,-10,2.7197929,0
14.5,1.70E+18,0.034000002,-0.0068,0.015699999,1.350000024,3.779999971,225.8000031,4.005366583,0.026701741,-0.080531644,1.137981523,270.7264469,-0.009903758,-6.886510196,107.6103814,-1,0,0,0,20.52449036,2840,59.68999863,37.02000046,932.2000122,0.034673335,250.4979704,251,0,0,0,365,0.036277898,-10,2.6701741,-0.496188
14.6,1.70E+18,0.034000002,-0.0068,0.015699999,1.350000024,3.779999971,225.8000031,4.005366583,0.026021734,-0.080192437,1.230475558,270.7394855,-0.024051728,-6.886510093,107.6103831,-1,0,0,0,20.52449036,2840,59.68999863,37.02000046,932.0999756,0.034673335,250.4979704,251,0,0,0,365,0.036277898,-10,2.6021734,-0.680007
14.7,1.70E+18,0.034000002,-0.0068,0.015699999,1.350000024,3.779999971,225.8000031,4.010480423,0.027672447,-0.081556405,1.319584799,270.7497086,-0.038589982,-6.886509989,107.6103848,-1,0,0,0,20.52449036,2840,59.68999863,37.02000046,932.0999756,0.034673335,250.4979704,251,0,0,0,365,0.036277898,-10,2.7672447,1.650713
14.8,1.70E+18,0.034000002,-0.0068,0.015699999,1.350000024,3.779999971,225.8000031,4.011503239,0.02870906,-0.085252624,1.412154003,270.7049619,-0.054881469,-6.886509887,107.6103864,-1,0,0,0,20.52449036,2840,59.68999863,37.02000046,932.0999756,0.034673335,250.4979704,251,0,0,0,365,0.036277898,-10,2.870906,1.036613
14.9,1.70E+18,0.034000002,-0.0068,0.015699999,1.350000024,3.779999971,225.8000031,4.013549585,0.024437761,-0.088726089,1.509351834,270.7132169,-0.080612934,-6.886509785,107.6103881,-1,0,0,0,20.52449036,2840,59.63999939,37.02000046,932.0999756,0.034673335,250.4979704,251,0,0,0,365,0.036277898,-10,2.4437761,-4.271299
15,1.70E+18,0.034000002,-0.0068,0.015699999,1.350000024,3.779999971,225.8000031,4.018663425,0.026175095,-0.096918745,1.596916028,270.7159777,-0.093136665,-6.886509684,107.6103898,-1,0,0,0,20.52449036,2840,59.63999939,37.02000046,932.0999756,0.034673335,250.4979704,251,0,0,0,365,0.036277898,-10,2.6175095,1.737334
15.1,1.70E+18,0.034000002,-0.0068,0.015699999,1.350000024,3.779999971,225.8000031,4.016617079,0.025429532,-0.101570281,1.692989402,270.7164698,-0.046265339,-6.886509583,107.6103915,-1,0,0,0,20.52449036,2840,59.63999939,37.02000046,932.0999756,0.034673335,250.4979704,251,0,0,0,365,0.036277898,-10,2.5429532,-0.745563
15.2,1.70E+18,0.031200001,-0.0137,0.0137,1.279999971,4.690000057,225.1999969,4.019685526,0.026087476,-0.106927605,1.786409824,270.7153217,-0.096296189,-6.886509484,107.6103932,-1,0,0,0,20.50476265,3166,59.63999939,37.02000046,932.0999756,0.034075359,250.4979704,251,0,0,0,365,0.036277898,-10,2.6087476,0.657944
15.3,1.70E+18,0.031200001,-0.0137,0.0137,1.279999971,4.690000057,225.1999969,4.019685526,0.024864871,-0.11639064,1.880327821,270.7151577,-0.109446534,-6.886509384,107.6103949,-1,0,0,0,20.50476265,3166,59.63999939,37.02000046,932.0999756,0.034075359,250.4979704,251,0,0,0,365,0.036277898,-10,2.4864871,-1.222605
15.4,1.70E+18,0.031200001,-0.0137,0.0137,1.279999971,4.690000057,225.1999969,4.019685526,0.023790728,-0.122473339,1.972837979,270.7158957,-0.062086705,-6.886509286,107.6103966,-1,0,0,0,20.50476265,3166,59.63999939,37.02000046,932.0999756,0.034075359,250.4979704,251,0,0,0,362.5,0.036277898,-2.5,2.3790728,-1.074143
15.5,1.70E+18,0.031200001,-0.0137,0.0137,1.279999971,4.690000057,225.1999969,4.018663425,0.02374021,-0.129980909,2.067810601,270.7156771,-0.067719765,-6.88650919,107.6103984,-1,0,0,0,20.50476265,3166,59.63999939,37.02000046,932.0999756,0.034075359,250.4979704,251,0,0,0,362.5,0.036277898,-2.5,2.374021,-0.050518
15.6,1.70E+18,0.031200001,-0.0137,0.0137,1.279999971,4.690000057,225.1999969,4.025822182,0.026585355,-0.13472879,2.11411202,270.7195312,-0.102680376,-6.886509143,107.6103992,-1,0,0,0,20.50476265,3166,59.63999939,37.02000046,931.7000122,0.034075359,250.4979704,251,0,0,0,362.5,0.036277898,-2.5,2.6585355,2.845145
15.7,1.70E+18,0.031200001,-0.0137,0.0137,1.279999971,4.690000057,225.1999969,4.022753019,0.023013782,-0.149126977,2.246166609,270.7169891,-0.137135157,-6.886509047,107.6104009,-1,0,0,0,20.50476265,3166,59.63999939,37.02000046,931.7000122,0.034075359,250.4979704,251,0,0,0,362.5,0.036277898,-2.5,2.3013782,-3.571573
15.8,1.70E+18,0.031200001,-0.0137,0.0137,1.279999971,4.690000057,225.1999969,4.023777504,0.021560753,-0.158376594,2.332246939,270.6637413,-0.072710501,-6.886508954,107.6104027,-1,0,0,0,20.50476265,3166,59.63999939,37.02000046,931.7000122,0.034075359,250.4979704,251,0,0,0,362.5,0.036277898,-2.5,2.1560753,-1.453029
15.9,1.70E+18,0.031200001,-0.0137,0.0137,1.279999971,4.690000057,225.1999969,4.029913445,0.023917073,-0.165039847,2.417353047,270.6634679,-0.076028326,-6.886508815,107.6104052,-1,0,0,0,20.50476265,3166,59.63999939,37.02000046,931.7000122,0.034075359,250.4979704,251,0,0,0,352.5,0.036277898,-10,2.3917073,2.35632
16,1.70E+18,0.031200001,-0.0137,0.0137,1.279999971,4.690000057,225.1999969,4.032980938,0.025794834,-0.173296048,2.505241733,270.6675135,-0.089166593,-6.886508725,107.610407,-1,0,0,0,20.50476265,3166,59.63999939,37.02000046,931.7000122,0.034075359,250.4979704,251,0,0,0,352.5,0.036277898,-10,2.5794834,1.877761
16.1,1.70E+18,0.031200001,-0.0137,0.0137,1.279999971,4.690000057,225.1999969,4.029913445,0.023345554,-0.18030037,2.587818535,270.6630033,-0.099977272,-6.886508636,107.6104087,-1,0,0,0,20.50476265,3166,59.63999939,37.02000046,931.7000122,0.034075359,250.4979704,251,0,0,0,352.5,0.036277898,-10,2.3345554,-2.44928
16.2,1.70E+18,0.0298,-0.016299998,0.013,1.149999976,5.570000172,283,4.031958838,0.021930199,-0.18800809,2.671907282,270.6630306,-0.101113501,-6.886508548,107.6104105,-1,0,0,0,20.64586067,1274,59.63999939,37.02000046,931.7000122,0.0339666,250.4979704,251,0,0,0,352.5,0.036277898,-10,2.1930199,-1.415355
16.3,1.70E+18,0.0298,-0.016299998,0.013,1.149999976,5.570000172,283,4.034005184,0.022707779,-0.19711384,2.755605444,270.6623199,-0.066204616,-6.88650846,107.6104122,-1,0,0,0,20.64586067,1274,59.63999939,37.02000046,931.7000122,0.0339666,250.4979704,251,0,0,0,352.5,0.036277898,-10,2.2707779,0.77758
16.4,1.70E+18,0.0298,-0.016299998,0.013,1.149999976,5.570000172,283,4.032980938,0.021367669,-0.201978988,2.833589176,270.6612538,-0.025950919,-6.886508374,107.610414,-1,0,0,0,20.64586067,1274,59.63999939,37.02000046,931.7000122,0.0339666,250.4979704,251,0,0,0,352.5,0.036277898,-10,2.1367669,-1.34011
16.5,1.70E+18,0.0298,-0.016299998,0.013,1.149999976,5.570000172,283,4.040141125,0.026068065,-0.20163605,2.912711779,270.6600785,-0.031101022,-6.886508288,107.6104157,-1,0,0,0,20.64586067,1274,59.63999939,37.02000046,931.7000122,0.0339666,250.4979704,251,0,0,0,352.5,0.036277898,-10,2.6068065,4.700396
16.6,1.70E+18,0.0298,-0.016299998,0.013,1.149999976,5.570000172,283,4.040141125,0.023312677,-0.206429872,2.992281133,270.6529441,-0.065671597,-6.886508204,107.6104175,-1,0,0,0,20.64586067,1274,59.63999939,37.02000046,932.0999756,0.0339666,250.4979704,251,0,0,0,352.5,0.036277898,-10,2.3312677,-2.755388
16.7,1.70E+18,0.0298,-0.016299998,0.013,1.149999976,5.570000172,283,4.0360501,0.020566147,-0.212388951,3.068001004,270.6480239,-0.039693233,-6.886508121,107.6104192,-1,0,0,0,20.64586067,1274,59.63999939,37.02000046,932.0999756,0.0339666,250.4979704,251,0,0,0,352.5,0.036277898,-10,2.0566147,-2.74653
16.8,1.70E+18,0.0298,-0.016299998,0.013,1.149999976,5.570000172,283,4.043208618,0.023448581,-0.213927938,3.146667033,270.5986849,-0.003070991,-6.886508039,107.610421,-1,0,0,0,20.64586067,1274,59.63999939,37.02000046,932.0999756,0.0339666,250.4979704,251,0,0,0,352.5,0.036277898,-10,2.3448581,2.882434
16.9,1.70E+18,0.0298,-0.016299998,0.013,1.149999976,5.570000172,283,4.044233103,0.020948136,-0.2193876,3.222282478,270.5962795,-0.058513499,-6.886507998,107.6104219,-1,0,0,0,20.64586067,1274,59.66999817,37.02000046,932.0999756,0.0339666,250.4979704,251,0,0,0,350,0.036277898,-2.5,2.0948136,-2.500445
17,1.70E+18,0.0298,-0.016299998,0.013,1.149999976,5.570000172,283,4.047300596,0.023522556,-0.218783129,3.300116724,270.5864937,0.043594305,-6.88650788,107.6104245,-1,0,0,0,20.64586067,1274,59.66999817,37.02000046,932.0999756,0.0339666,250.4979704,251,0,0,0,350,0.036277898,-2.5,2.3522556,2.57442
17.1,1.70E+18,0.0298,-0.016299998,0.013,1.149999976,5.570000172,283,4.047300596,0.021880899,-0.218615824,3.374406866,270.5805347,-0.005449943,-6.886507801,107.6104263,-1,0,0,0,20.64586067,1274,59.66999817,37.02000046,932.0999756,0.0339666,250.4979704,251,0,0,0,350,0.036277898,-2.5,2.1880899,-1.641657
17.2,1.70E+18,0.0275,-0.0075,0.0144,0.879999995,6.400000095,224.1999969,4.049346943,0.02283611,-0.214564549,3.442701545,270.5755598,0.057480856,-6.886507724,107.6104281,-1,0,0,0,20.52031136,2994,59.66999817,37.02000046,932.0999756,0.028504385,250.4979704,251,0,0,0,350,0.036277898,-2.5,2.283611,0.955211
17.3,1.70E+18,0.0275,-0.0075,0.0144,0.879999995,6.400000095,224.1999969,4.051391859,0.023794355,-0.205566896,3.512279884,270.5694642,0.111745391,-6.886507688,107.610429,-1,0,0,0,20.52031136,2994,59.66999817,37.02000046,932.0999756,0.028504385,250.4979704,251,0,0,0,350,0.036277898,-2.5,2.3794355,0.958245
17.4,1.70E+18,0.0275,-0.0075,0.0144,0.879999995,6.400000095,224.1999969,4.053436537,0.023794355,-0.204404975,3.550471252,270.5655007,0.030676471,-6.886507614,107.6104307,-1,0,0,0,20.52031136,2994,59.66999817,37.02000046,932.0999756,0.028504385,250.4979704,251,0,0,0,340,0.036277898,-10,2.3794355,0
17.5,1.70E+18,0.0275,-0.0075,0.0144,0.879999995,6.400000095,224.1999969,4.051391859,0.023356475,-0.193530096,3.654162975,270.5604164,0.02081348,-6.886507505,107.6104334,-1,0,0,0,20.52031136,2994,59.66999817,37.02000046,932.0999756,0.028504385,250.4979704,251,0,0,0,340,0.036277898,-10,2.3356475,-0.43788
17.6,1.70E+18,0.0275,-0.0075,0.0144,0.879999995,6.400000095,224.1999969,4.057528515,0.025117667,-0.186796478,3.723537799,270.5600611,0.066213365,-6.886507469,107.6104343,-1,0,0,0,20.52031136,2994,59.66999817,37.02000046,931.5999756,0.028504385,250.4979704,251,0,0,0,340,0.036277898,-10,2.5117667,1.761192
17.7,1.70E+18,0.0275,-0.0075,0.0144,0.879999995,6.400000095,224.1999969,4.055482883,0.023134461,-0.179215741,3.789813987,270.5534735,0.026709917,-6.886507364,107.610437,-1,0,0,0,20.52031136,2994,59.66999817,37.02000046,931.5999756,0.028504385,250.4979704,251,0,0,0,340,0.036277898,-10,2.3134461,-1.983206
17.8,1.70E+18,0.0275,-0.0075,0.0144,0.879999995,6.400000095,224.1999969,4.054461021,0.022024848,-0.17099284,3.850648453,270.5132916,0.065561979,-6.886507295,107.6104388,-1,0,0,0,20.52031136,2994,59.66999817,37.02000046,931.5999756,0.028504385,250.4979704,251,0,0,0,340,0.036277898,-10,2.2024848,-1.109613
17.9,1.70E+18,0.0275,-0.0075,0.0144,0.879999995,6.400000095,224.1999969,4.060596962,0.021044692,-0.162013459,3.912492163,270.5086994,0.110920788,-6.886507228,107.6104406,-1,0,0,0,20.52031136,2994,59.61999893,37.00999832,931.5999756,0.028504385,250.4979704,251,0,0,0,340,0.036277898,-10,2.1044692,-0.980156
18,1.70E+18,0.0275,-0.0075,0.0144,0.879999995,6.400000095,224.1999969,4.057528515,0.020912113,-0.15637675,3.974414887,270.5042438,0.023568927,-6.886507161,107.6104424,-1,0,0,0,20.52031136,2994,59.61999893,37.00999832,931.5999756,0.028504385,250.4979704,251,0,0,0,340,0.036277898,-10,2.0912113,-0.132579
18.1,1.70E+18,0.0275,-0.0075,0.0144,0.879999995,6.400000095,224.1999969,4.059574862,0.021182908,-0.15158824,4.006874742,270.5035604,0.103041285,-6.886507128,107.6104433,-1,0,0,0,20.52031136,2994,59.61999893,37.00999832,931.5999756,0.028504385,250.4979704,251,0,0,0,340,0.036277898,-10,2.1182908,0.270795
18.2,1.70E+18,0.027100001,-0.0155,0.0136,1.080000043,7.019999981,223.8999939,4.064688702,0.022639338,-0.145956162,4.102681283,270.4916426,-0.010446659,-6.886507031,107.610446,-1,0,0,0,20.5046711,3120,59.61999893,37.00999832,931.5999756,0.031219545,250.4979704,251,0,0,0,340,0.036277898,-10,2.2639338,1.45643
18.3,1.70E+18,0.027100001,-0.0155,0.0136,1.080000043,7.019999981,223.8999939,4.062642355,0.020503996,-0.142434468,4.167468162,270.48008,0.01896778,-6.886506999,107.6104469,-1,0,0,0,20.5046711,3120,59.61999893,37.00999832,931.5999756,0.031219545,250.4979704,251,0,0,0,340,0.036277898,-10,2.0503996,-2.135342
18.4,1.70E+18,0.027100001,-0.0155,0.0136,1.080000043,7.019999981,223.8999939,4.063664455,0.018442074,-0.140679047,4.228646873,270.4744764,-0.045053113,-6.886506904,107.6104496,-1,0,0,0,20.5046711,3120,59.61999893,37.00999832,931.5999756,0.031219545,250.4979704,251,0,0,0,337.5,0.036277898,-2.5,1.8442074,-2.061922
18.5,1.70E+18,0.027100001,-0.0155,0.0136,1.080000043,7.019999981,223.8999939,4.067756433,0.019809116,-0.136776296,4.284293741,270.4655653,0.011411518,-6.886506843,107.6104514,-1,0,0,0,20.5046711,3120,59.61999893,37.00999832,931.5999756,0.031219545,250.4979704,251,0,0,0,337.5,0.036277898,-2.5,1.9809116,1.367042
18.6,1.70E+18,0.027100001,-0.0155,0.0136,1.080000043,7.019999981,223.8999939,4.06980278,0.02361316,-0.139059751,4.344329096,270.4550415,-0.010682418,-6.886506784,107.6104532,-1,0,0,0,20.5046711,3120,59.61999893,37.00999832,931.5999756,0.031219545,250.4979704,251,0,0,0,337.5,0.036277898,-2.5,2.361316,3.804044
18.7,1.70E+18,0.027100001,-0.0155,0.0136,1.080000043,7.019999981,223.8999939,4.068778296,0.022194646,-0.143151962,4.40490858,270.4468958,-0.03044719,-6.886506726,107.6104551,-1,0,0,0,20.5046711,3120,59.61999893,37.00999832,931.5999756,0.031219545,250.4979704,251,0,0,0,337.5,0.036277898,-2.5,2.2194646,-1.418514
18.8,1.70E+18,0.027100001,-0.0155,0.0136,1.080000043,7.019999981,223.8999939,4.071847458,0.020231511,-0.144084849,4.456705965,270.4035431,-0.009995306,-6.88650667,107.6104569,-1,0,0,0,20.5046711,3120,59.61999893,37.00999832,931.5999756,0.031219545,250.4979704,251,0,0,0,337.5,0.036277898,-2.5,2.0231511,-1.963135
18.9,1.70E+18,0.027100001,-0.0155,0.0136,1.080000043,7.019999981,223.8999939,4.073892374,0.019614823,-0.145177473,4.50840768,270.3949327,0.020867464,-6.886506614,107.6104587,-1,0,0,0,20.5046711,3120,59.63999939,37.04000092,931.5999756,0.031219545,250.4979704,251,0,0,0,327.5,0.036277898,-10,1.9614823,-0.616688
19,1.70E+18,0.027100001,-0.0155,0.0136,1.080000043,7.019999981,223.8999939,4.075938721,0.019874286,-0.148774871,4.5569531,270.3900945,-0.078318301,-6.886506561,107.6104605,-1,0,0,0,20.5046711,3120,59.63999939,37.04000092,931.5999756,0.031219545,250.4979704,251,0,0,0,327.5,0.036277898,-10,1.9874286,0.259463
19.1,1.70E+18,0.027100001,-0.0155,0.0136,1.080000043,7.019999981,223.8999939,4.073892374,0.018303223,-0.149198277,4.611581327,270.3842175,0.018035653,-6.886506509,107.6104624,-1,0,0,0,20.5046711,3120,59.63999939,37.04000092,931.5999756,0.031219545,250.4979704,251,0,0,0,327.5,0.036277898,-10,1.8303223,-1.571063
