Time,field.velocity_x,field.velocity_y,field.velocity_z,field.dvl_roll,field.dvl_pitch,field.dvl_yaw,field.depth_data,field.depth_rate,field.roll_data,field.pitch_data,field.yaw_data,field.yaw_rate_data,field.lat,field.long,field.gps_status,field.navigasi_north,field.navigasi_east,field.navigasi_depth,field.voltage,field.current,field.humidity,field.temperature,field.pressure,field.surge,field.des_mm,field.cur_mm,field.roll_sp,field.servo_position,field.yaw_sp,field.internal_volume,field.bow_percentage,depth_rate,be_rate,mm_rate,pitch
0,-0.042599998,0.0051,0.010100001,4.849999905,7.130000114,343.7999878,-0.138956528,0.002539604,4.427745796,4.056935098,0.863999105,-0.081027604,-6.886671424,107.6107285,-1,-0.305901287,9.40337589,-0.056838615,21.23048973,1606,61.40000153,35.20000076,-1.6015625,0.042904194,114.6305586,114,0,0,0,142.5,-0.045747604,2.539604,0,0,4.056935098
1,-0.085000001,-0.0089,0.019100001,5.039999962,7.269999981,343.7999878,-0.143047671,-0.002232646,4.442806314,3.925272376,0.898632701,0.119076079,-6.886671506,107.6107279,-1,-0.185267838,9.496568197,-0.004313632,21.09709167,3326,61.40000153,35.20000076,-2.578125,0.085464672,111.6941134,112,0,0,0,147.5,-0.044751056,-2.232646,5,-2,3.925272376
2,-0.083300002,-0.0057,-0.0042,5.300000191,7.429999828,7.599999905,-0.142024975,-0.004987403,4.558541071,3.610443395,0.999492089,-0.106308746,-6.886671015,107.6107314,0,-0.24683293,9.506102311,0.000391889,21.10083008,3320,61.40000153,35.20000076,-2.08984375,0.083494792,108.4593899,109,0,0,0,165,-0.049763985,-4.987403,17.5,-3,3.610443395
3,0.0091,0.0025,0.0093,4.980000019,7.070000172,7.300000191,-0.144070487,-0.002979267,4.724896543,3.358262787,1.100920805,0.133808542,-6.886670138,107.6107319,0,-0.267448128,9.464683104,-0.051507654,21.08128929,3426,61.29999924,35.10000229,-1.2109375,0.009437161,106.6401813,107,0,0,0,182.5,-0.061559249,-2.979267,17.5,-2,3.358262787
4,-0.016000001,0.0023,0.004,5.039999962,7.130000114,7.400000095,-0.138956528,-0.000732088,4.759361647,3.213412395,1.173007842,-0.112964657,-6.886669662,107.6107303,0,0.060509092,0.096677397,-0.054829438,21.08919144,3440,61.29999924,35.10000229,-1.30859375,0.016164468,104.3487215,105,0,0,0,200,-0.060132664,-0.732088,17.5,-2,3.213412395
5,-0.112999998,0.008,-0.023600001,5.440000057,6.429999828,7.800000191,-0.136911016,0.00311246,4.673618515,3.270896235,1.201031053,-0.158450657,-6.886669289,107.6107289,0,0.109674861,-0.055773869,-0.084539172,21.09709167,3452,61.29999924,35.10000229,-1.69921875,0.11328283,100.3953929,101,0,0,0,217.5,-0.045146003,3.11246,17.5,-4,3.270896235
6,0.0049,-0.0099,-0.0011,4.849999905,6.309999943,7.400000095,-0.141002159,0.000128532,4.49963754,3.222050133,1.278897439,-0.242216714,-6.886668801,107.6107275,0,0.150948528,-0.24568336,-0.064079489,21.09704018,3274,61.40000153,35.20000076,-2.48046875,0.011046266,96.39742895,97,0,0,0,235,-0.049148276,0.128532,17.5,-4,3.222050133
7,-0.0165,0.0039,0.0062,5.010000229,6.320000172,7.5,-0.121569257,0.006270257,4.407223053,2.926873458,1.300351587,-0.091253153,-6.886668383,107.6107265,0,0.203425461,-0.395832901,-0.065902889,21.08099937,3286,61.40000153,35.20000076,-1.796875,0.016954645,94.19376908,95,0,0,0,255,-0.053349569,6.270257,20,-2,2.926873458
8,-0.050999999,-0.0013,0.009699999,4.940000057,6.179999828,7.400000095,-0.110318642,0.007239719,4.396696237,2.227765502,1.200131467,-0.030931492,-6.886667989,107.6107255,0,0.275595997,-0.534903303,-0.046635232,21.1009407,3274,61.40000153,35.20000076,-1.11328125,0.051016565,95.32301725,95,0,0,0,272.5,-0.038197801,7.239719,17.5,0,2.227765502
9,0.0083,0.046700001,0.021799998,4.670000076,5.800000191,7.599999905,-0.081680636,0.012471803,4.341593072,1.008426023,1.160858033,-0.049787531,-6.886667298,107.6107244,0,0.301547468,-0.646485874,-0.052063263,21.07346153,3480,61.40000153,35.20000076,-2.08984375,0.047431847,101.2868595,101,0,0,0,292.5,-0.055239223,12.471803,20,6,1.008426023
10,0.031200001,-0.0053,0.037500001,4.670000076,4.550000191,7.699999809,-0.048951488,0.018750343,4.354528323,-0.512857743,1.133569439,-0.028909825,-6.886666664,107.6107233,0,0.372854125,-0.771329333,-0.037826045,21.06918144,3626,61.40000153,35.20000076,-1.6015625,0.03164696,110.2792876,110,0,0,0,312.5,-0.048580356,18.750343,20,9,-0.512857743
11,0.0061,-0.0068,0.048299998,5.159999847,2.819999933,7.400000095,-0.005994539,0.024449166,4.29046752,-2.066962801,1.002070939,-0.150449823,-6.886665976,107.6107225,1,0.442459058,-0.876377733,-0.076391507,21.08114052,3426,61.40000153,35.20000076,-2.578125,0.009135097,120.3095804,120,0,0,0,330,-0.050553117,24.449166,17.5,10,-2.066962801
12,0.0069,-0.0031,0.0568,4.760000229,-0.100000001,7.300000191,0.032871265,0.027166145,4.114288671,-3.688518741,0.889150046,-0.275778442,-6.886665393,107.6107217,1,0.536235373,-0.999672708,-0.063919402,21.09696007,3294,61.40000153,35.20000076,-2.7734375,0.00756439,131.372764,131,0,0,0,350,-0.041267443,27.166145,20,11,-3.688518741
13,-0.0113,-0.0105,0.0678,4.510000229,-2.349999905,7.199999809,0.091169972,0.034553137,3.953130192,-5.300349538,0.787285845,-0.15768143,-6.886664856,107.6107209,1,0.581413326,-1.042720846,-0.067730303,21.08913231,3466,61.40000153,35.20000076,-1.40625,0.015425304,141.107914,141,0,0,0,367.5,-0.037053686,34.553137,17.5,10,-5.300349538
14,-0.0244,0.0061,0.066399999,4.829999924,-3.480000019,7.400000095,0.141286392,0.038698509,3.940097133,-6.913524857,0.659562084,0.117653051,-6.886664709,107.6107202,1,0.651587848,-1.149894293,-0.038137063,21.06123161,3460,61.40000153,35.20000076,-2.67578125,0.025150944,153.8741119,153,0,0,0,387.5,-0.024812721,38.698509,20,12,-6.913524857
15,0.101800002,0.0017,0.046,4.679999828,-5.21999979,7.300000191,0.201630731,0.041253641,3.935007343,-8.685626612,0.434417197,-0.068884809,-6.886664669,107.6107196,1,0.702737079,-1.21622647,-0.010209543,21.09300041,3354,61.5,35.20000076,-1.6015625,0.101814196,165.8435828,165,0,0,0,405,-0.015638974,41.253641,17.5,12,-8.685626612
16,0.101800002,0.0017,0.046,4.679999828,-5.21999979,7.300000191,0.264020581,0.048235778,3.837105005,-10.02533193,0.149382999,-0.115288046,-6.88666486,107.6107192,-1,0.750741669,-1.313729061,0.019029223,21.10087013,3260,61.5,35.20000076,-2.1875,0.101814196,175.1191641,175,0,0,0,425,-0.005910564,48.235778,20,10,-10.02533193
17,0.029999999,0.0051,0.059900001,4.400000095,-6.900000095,7.199999809,0.316182513,0.045167547,3.748376848,-10.95531273,359.9774336,-0.273617486,-6.886665768,107.6107191,-1,0.719510911,-1.361027532,0.019040996,21.10090065,3226,61.5,35.20000076,-1.796875,0.030430412,183.5461181,183,0,0,0,442.5,-0.017857103,45.167547,17.5,8,-10.95531273
18,-0.052999999,-0.0023,0.071900003,4.349999905,-8.649999619,7,0.375504036,0.047511384,3.679139979,-11.65838207,359.6482975,-0.026813343,-6.886666987,107.6107188,-1,0.86998606,-1.344725603,0.080489865,21.10091019,3266,61.5,35.20000076,-1.50390625,0.053049882,188.4593649,188,0,0,0,462.5,0.032542624,47.511384,20,5,-11.65838207
19,-0.0155,-0.027100001,0.068000004,4.449999809,-9.010000229,7,0.430734415,0.051509783,3.63348861,-11.97364926,359.2572759,-0.136267136,-6.886668452,107.6107185,-1,0.882673009,-1.292467838,0.06501347,21.10884094,3280,61.5,35.20000076,-2.578125,0.031219545,189.650915,189,0,0,0,480,0.057426691,51.509783,17.5,1,-11.97364926
20,-0.0129,-0.051799998,0.073800005,4.599999905,-9.149999619,7.099999905,0.485964794,0.0532756,3.602203717,-12.14420786,358.9121764,-0.187893546,-6.886670301,107.6107181,-1,0.484099199,-1.39102399,0.100067635,21.08891106,3320,61.5,35.20000076,-1.50390625,0.053382111,189.3606253,189,0,0,0,500,0.065387897,53.2756,20,0,-12.14420786
21,0.033599999,0.010899999,0.052499998,4.349999905,-9.369999886,7.400000095,0.54937746,0.05841938,3.427157333,-12.25054293,358.6720691,-0.240222729,-6.886672475,107.6107175,-1,0.558568392,-1.320124173,0.164884826,21.09691048,3274,61.60000229,35.20000076,-1.9921875,0.035323787,188.55881,189,0,0,0,517.5,0.070380561,58.41938,17.5,0,-12.25054293
22,0.044299997,0.016700001,0.058900002,3.730000019,-9.430000305,7,0.615858455,0.060861118,3.132809025,-12.39365159,358.4662942,-0.257690402,-6.886674959,107.6107167,-1,0.598157281,-1.348668748,0.228137629,21.09289169,3260,61.60000229,35.20000076,-2.48046875,0.047343213,189.197269,189,0,0,0,537.5,0.095476471,60.861118,20,0,-12.39365159
23,0.044299997,0.016700001,0.058900002,3.730000019,-9.430000305,7,0.685407777,0.066268548,2.923678725,-12.67990138,358.3963449,-0.100094999,-6.886677775,107.6107159,-1,0.623755425,-1.463437243,0.275680766,21.10085106,3186,61.60000229,35.20000076,-1.6015625,0.047343213,189.9770849,189,0,0,0,555,0.085636012,66.268548,17.5,0,-12.67990138
24,0.222100005,-0.019200001,0.0427,3.579999924,-9.989999771,6.900000095,0.760071058,0.069436707,2.785528518,-13.01341698,358.4736198,-0.121526892,-6.886680914,107.6107149,-1,0.694003829,-1.397802433,0.34650383,21.10486984,3246,61.60000229,35.20000076,-2.08984375,0.222928356,191.1904133,191,0,0,0,567.5,0.072862543,69.436707,12.5,2,-13.01341698
25,0.222100005,-0.019200001,0.0427,3.579999924,-9.989999771,6.900000095,0.841893811,0.074592076,2.677867723,-13.56971568,358.7659635,0.037305575,-6.886684403,107.6107138,-1,0.795721156,-1.331824828,0.426661638,21.10091972,3246,61.60000229,35.20000076,-2.48046875,0.222928356,194.272122,194,0,0,0,577.5,0.051720589,74.592076,10,3,-13.56971568
26,0.130800009,0.0482,0.063699998,3.519999981,-11.23999977,338.2999878,0.92985328,0.078350395,2.651834279,-14.13793397,359.1783882,0.209171515,-6.88668827,107.6107126,-1,0.924483824,-1.282829505,0.515501007,21.1049099,3220,61.60000229,35.20000076,-1.89453125,0.139398287,197.474548,197,0,0,0,592.5,0.034394544,78.350395,15,3,-14.13793397
27,0.090400003,0.041900001,0.078400001,3.539999962,-11.76000023,6.900000095,1.012698848,0.080515221,2.620240804,-14.70523143,359.6409172,-0.041901388,-6.886692548,107.6107114,-1,1.19429899,-1.278999461,0.574222522,21.06924057,3506,61.70000076,35.20000076,-2.08984375,0.099638199,201.6680817,201,0,0,0,597.5,0.000120874,80.515221,5,4,-14.70523143
28,0.02,0.024,0.091300003,3.460000038,-12.51000023,6.199999809,1.111908962,0.088320874,2.589422521,-15.31113561,360.0706993,0.195194371,-6.886697285,107.6107101,-1,1.605829159,-1.286994083,0.6423703,21.22642136,1626,61.70000076,35.20000076,-1.9921875,0.031240999,206.1887864,206,0,0,0,605,-0.033167057,88.320874,7.5,5,-15.31113561
29,0.059900001,-0.224199995,0.114800006,3.579999924,-12.89000034,5.199999809,1.202936788,0.08967337,2.710462969,-15.79377947,0.252470478,0.297980502,-6.886702519,107.6107088,-1,1.818844412,-1.289417217,0.722898576,21.2304306,1620,61.70000076,35.20000076,-2.1875,0.232063888,210.523812,210,0,0,0,610,-0.022949964,89.67337,5,4,-15.79377947
30,0.108499996,0.0178,0.082099997,3.630000114,-13.09000015,338.8999939,1.303169672,0.091868572,2.737091368,-16.22643858,0.538523985,-0.00088563,-6.886708294,107.6107074,-1,1.984537816,-1.174922631,0.767517063,21.22644043,1614,61.60000229,35.10000229,-2.1875,0.109950394,213.9436443,213,0,0,0,615,-0.03437563,91.868572,5,3,-16.22643858
31,0.091400005,0.137899995,0.050999999,3.5,-13.63000011,338.7999878,1.398288634,0.095751569,2.687594147,-16.51403631,0.656739251,0.02829525,-6.886714613,107.6107059,-1,2.101958937,-1.152946333,0.837017278,21.23045158,1634,61.60000229,35.10000229,-2.67578125,0.165439927,216.6281308,216,0,0,0,615,-0.038353007,95.751569,0,3,-16.51403631
32,0.193300009,0.036800001,0.052099999,3.569999933,-13.96000004,338.5,1.49545317,0.094202355,2.679251538,-16.67462546,0.632884568,-0.044905202,-6.88672151,107.6107044,-1,2.261342582,-1.338965964,0.950189256,21.23044014,1634,61.60000229,35.10000229,-2.67578125,0.19677178,218.5392096,218,0,0,0,615,-0.033846017,94.202355,0,2,-16.67462546
33,0.0517,0.036699999,0.083499998,3.819999933,-13.75,338.2000122,1.591594916,0.095726177,2.870426199,-16.6615783,0.47504527,0.068708289,-6.886718288,107.6107052,-1,2.445823084,-1.386397395,1.054279975,21.22642136,1634,61.70000076,35.20000076,-2.08984375,0.063401734,219.3843526,219,0,0,0,615,-0.020885726,95.726177,0,1,-16.6615783
34,0.091800004,-0.032599997,0.081199996,3.779999971,-13.63000011,337.7999878,1.690804217,0.098580331,2.832871856,-16.49008777,0.378374138,-0.306232832,-6.886715708,107.6107057,-1,2.645362018,-1.340766094,1.15666426,21.2304306,1606,61.70000076,35.20000076,-2.48046875,0.097416634,218.5765208,219,0,0,0,615,-0.024114784,98.580331,0,0,-16.49008777
35,0.220100001,0.02,0.043900002,3.579999924,-13.39000034,337.2999878,1.782854844,0.097361073,2.600492827,-16.24016056,0.293385457,-0.147817585,-6.886722271,107.6107043,-1,2.924525999,-1.281737997,1.247822117,21.21850204,1666,61.70000076,35.20000076,-2.48046875,0.22100681,218.1960817,219,0,0,0,615,-0.013960646,97.361073,0,0,-16.24016056
36,0.179100007,-0.0053,0.048099998,3.809999943,-13.11999989,337.1000061,1.870815892,0.09264148,3.110597302,-15.89339877,0.244394514,0.87504688,-6.886718707,107.6107051,-1,3.12607477,-1.274784457,1.345621298,21.2224617,1634,61.70000076,35.20000076,-2.28515625,0.17917841,217.742951,218,0,0,0,615,-0.011702764,92.64148,0,-1,-15.89339877
37,-0.206200004,-0.0208,0.135000005,4.440000057,-12.75,337,1.967980434,0.096331105,3.649352083,-15.33587002,0.287443782,-0.008775509,-6.886725286,107.6107037,-1,3.299479111,-1.315096786,1.423800673,21.23443985,1634,61.70000076,35.20000076,-0.91796875,0.207246427,213.3617962,214,0,0,0,615,-0.017239086,96.331105,0,-4,-15.33587002
38,0.120099999,0.024,0.0634,4.420000076,-11.92000008,330.7999878,2.05900665,0.098874591,3.500461721,-14.75750546,0.425570446,-0.196558272,-6.88673231,107.6107021,-1,3.595151236,-1.365068321,1.54022522,21.23445129,1626,61.70000076,35.20000076,-1.40625,0.122474527,208.2082541,209,0,0,0,615,-0.027943546,98.874591,0,-5,-14.75750546
39,0.095300004,-0.160600007,0.095199995,3.940000057,-11.44999981,294.1000061,2.151057262,0.100403219,3.301204769,-14.26718911,0.661996199,-0.230063195,-6.886739762,107.6107006,-1,3.851445987,-1.401699876,1.65315168,21.10498047,3246,61.70000076,35.20000076,-1.796875,0.186747029,203.1748966,204,0,0,0,602.5,-0.042939391,100.403219,-12.5,-5,-14.26718911
40,0.086999997,-0.0007,0.0766,3.799999952,-11.07999992,265.2000122,2.247199852,0.097560711,2.991720346,-13.95464684,0.963120715,-0.361517223,-6.886748025,107.6106988,-1,3.800832277,-1.321948504,1.755628617,21.08118057,3466,61.70000076,35.20000076,-2.48046875,0.087002814,199.942332,200,0,0,0,597.5,-0.058027796,97.560711,-5,-4,-13.95464684
41,0.086999997,-0.0007,0.0766,3.799999952,-11.07999992,265.2000122,2.340272446,0.096203648,2.631720915,-13.86908864,1.285750205,-0.195151687,-6.886756301,107.6106972,-1,4.003208824,-1.358815232,1.836472263,21.22252083,1646,61.70000076,35.20000076,-2.578125,0.087002814,198.1913834,199,0,0,0,590,-0.077211499,96.203648,-7.5,-1,-13.86908864
42,0.086999997,-0.0007,0.0766,3.799999952,-11.07999992,265.2000122,2.437436957,0.096487507,2.652368158,-13.93522389,1.673331437,0.520635135,-6.886745783,107.6106992,-1,4.023335507,-1.495919293,1.958543766,21.10095024,3280,61.70000076,35.20000076,-2.08984375,0.087002814,198.9828369,199,0,0,0,575,-0.094322875,96.487507,-15,0,-13.93522389
43,0.082199998,-0.0093,0.081100002,3.630000114,-10.98999977,263.5,2.528465528,0.093657553,3.070950793,-13.97566374,1.96072127,0.140273926,-6.886753375,107.6106979,-1,4.008116609,-1.622049912,2.050590012,21.10095024,3266,61.70000076,35.20000076,-2.67578125,0.08272442,198.9041122,199,0,0,0,557.5,-0.106087454,93.657553,-17.5,0,-13.97566374
44,0.079000004,-0.0041,0.0766,3.809999943,-10.90999985,264.2999878,2.624607344,0.093710333,2.954356918,-13.9039548,2.221903722,-0.218321977,-6.886743941,107.6106994,-1,4.104009847,-1.784991291,2.146803938,21.1009903,3294,61.70000076,35.20000076,-2.578125,0.079106324,198.5636326,199,0,0,0,540,-0.118983872,93.710333,-17.5,0,-13.9039548
45,0.048599999,-0.0005,0.077199996,3.650000095,-10.89999962,261.3999939,2.714613218,0.094439887,2.808575868,-13.6390542,2.399419832,-0.048838891,-6.886750962,107.6106984,-1,4.238131256,-1.946907045,2.268801164,21.09694099,3280,61.60000229,35.20000076,-1.796875,0.048602571,197.6870316,198,0,0,0,520,-0.119043954,94.439887,-20,-1,-13.6390542
46,0.075499997,-0.0035,0.064900003,3.630000114,-10.36999989,260.3999939,2.791322012,0.08332435,2.925379237,-13.19177534,2.426759358,0.156535098,-6.886758308,107.6106973,-1,4.390314136,-2.055668567,2.36010988,21.08914185,3326,61.60000229,35.20000076,-2.28515625,0.075581079,193.7355362,194,0,0,0,502.5,-0.12005163,83.32435,-17.5,-4,-13.19177534
47,0.070100002,-0.0057,0.0603,3.920000076,-9.569999695,256.5,2.8618926,0.079065159,3.01579787,-12.64151247,2.337590216,-0.111457069,-6.886765975,107.6106962,-1,4.496587299,-2.101675547,2.466236823,21.07702065,3294,61.60000229,35.20000076,-2.67578125,0.070331361,188.6376279,189,0,0,0,485,-0.119212255,79.065159,-17.5,-5,-12.64151247
48,0.065300003,0.0012,0.055300001,3.670000076,-8.859999657,254.6999969,2.937579412,0.078410663,3.060140807,-11.94307721,2.097192321,0.021989457,-6.886774348,107.6106952,-1,4.624695261,-2.237966066,2.54483718,21.08106995,3360,61.60000229,35.20000076,-1.9921875,0.065311028,181.9590408,182,0,0,0,465,-0.095510267,78.410663,-20,-7,-11.94307721
49,0.065699995,-0.0011,0.051200002,3.910000086,-8.520000458,257,2.998946447,0.074711107,3.088349275,-11.24645029,1.819898036,-0.017995065,-6.88678216,107.6106942,-1,4.777531326,-2.31588188,2.666922405,21.07308006,3400,61.60000229,35.20000076,-1.50390625,0.065709202,173.8583984,174,0,0,0,447.5,-0.080754258,74.711107,-17.5,-8,-11.24645029
50,0.058499999,-0.0004,0.050799999,4.010000229,-7.880000114,258.7000122,3.063381929,0.068708375,3.217776964,-10.54089777,1.421144102,0.033222995,-6.886790597,107.6106932,-1,4.824772595,-2.380455618,2.698502556,21.0968914,3294,61.60000229,35.20000076,-3.06640625,0.058501367,165.7473536,166,0,0,0,430,-0.066441946,68.708375,-17.5,-8,-10.54089777
51,0.0561,-0.0013,0.052299999,3.720000029,-7.099999905,252.1999969,3.121680636,0.066637404,3.284377965,-9.994061984,0.870214313,-0.213766293,-6.886799225,107.6106922,-1,4.887686678,-2.423609796,2.764884329,21.07740021,3546,61.60000229,35.20000076,-1.6015625,0.05611506,158.2894845,159,0,0,0,410,-0.021218808,66.637404,-20,-7,-9.994061984
52,0.049400002,-0.0047,0.050999999,3.960000038,-6.949999809,252,3.181002159,0.061513335,3.097589442,-9.68409173,0.345258733,-0.250117806,-6.886808048,107.6106911,-1,4.933701394,-2.420445749,2.860891726,21.09700012,3280,61.60000229,35.20000076,-2.7734375,0.049623081,153.4104879,154,0,0,0,392.5,-0.00238449,61.513335,-17.5,-5,-9.68409173
53,0.048,-0.0011,0.050999999,3.789999962,-6.340000153,250.8000031,3.24339201,0.061503783,3.444294214,-9.475923268,359.8952658,0.305605898,-6.886817458,107.6106901,-1,4.969932081,-2.456520368,2.940020389,20.98238182,3286,61.60000229,35.20000076,-2.7734375,0.048012603,150.0082083,151,0,0,0,375,0.027262943,61.503783,-17.5,-3,-9.475923268
54,0.037599999,-0.0033,0.052099999,4.289999962,-6.420000076,249.3999939,3.299645205,0.060158424,3.504039565,-9.331740866,359.2864693,-0.406499053,-6.886826076,107.6106891,-1,5.002807148,-2.505326061,2.992959917,21.08550262,3360,61.5,35.20000076,-1.89453125,0.037744535,148.1263777,149,0,0,0,357.5,0.059188407,60.158424,-17.5,-2,-9.331740866
55,0.031100001,-0.0085,0.047900002,3.950000048,-6.480000019,249.1000061,3.348739643,0.055378966,3.053258037,-9.248711121,358.6580191,-0.405125676,-6.886835263,107.6106882,-1,5.010616476,-2.520908174,3.055658762,21.09300041,3320,61.5,35.20000076,-2.48046875,0.032240659,152.565669,152,0,0,0,342.5,0.089220949,55.378966,-15,3,-9.248711121
56,0.020399999,-0.0035,0.042400002,3.680000067,-6.179999828,248.8999939,3.391695757,0.046696901,3.02596293,-9.167829706,358.1676635,0.072714598,-6.886844593,107.6106873,-1,5.011349411,-2.524419391,3.138493349,21.08101082,3366,61.5,35.20000076,-1.69921875,0.020698066,156.1318059,156,0,0,0,325,0.099102408,46.696901,-17.5,4,-9.167829706
57,0.0099,-0.0048,0.034599997,3.700000048,-5.710000038,252.8999939,3.429538031,0.041615754,3.180158983,-8.956501533,357.8383087,0.258690624,-6.886814305,107.6106901,-1,5.037214516,-2.541662822,3.186321413,21.08906174,3386,61.40000153,35.20000076,-0.52734375,0.011002273,158.7832198,158,0,0,0,310,0.125817895,41.615754,-15,2,-8.956501533
58,0.0012,-0.0019,0.027100001,4.239999771,-5.210000038,247.8000031,3.461245914,0.037529647,3.415029093,-8.505469295,357.6595404,0.005409198,-6.886821681,107.6106895,-1,4.997682818,-2.623597654,3.200176478,21.09300041,3346,61.40000153,35.20000076,-2.48046875,0.002247221,158.3313653,158,0,0,0,292.5,0.120196529,37.529647,-17.5,0,-8.505469295
59,-0.0072,0.0012,0.0185,4.110000134,-4.960000038,250.6999969,3.485791106,0.029448556,3.353188158,-7.770064815,357.680834,-0.125638549,-6.886829121,107.6106889,-1,4.957528205,-2.657728134,3.243742013,21.08899117,3360,61.40000153,35.20000076,-2.08984375,0.007299315,156.8009943,157,0,0,0,277.5,0.110654019,29.448556,-15,-1,-7.770064815
60,-0.0153,0.0015,0.010100001,4.119999886,-3.480000019,247.1000061,3.504202027,0.029139139,3.360795083,-6.776556657,357.8154843,0.168368677,-6.886836997,107.6106885,-1,4.90118688,-2.665947599,3.300978324,21.09701157,3340,61.40000153,35.20000076,-1.9921875,0.015373354,153.562523,154,0,0,0,262.5,0.102748848,29.139139,-15,-3,-6.776556657
61,-0.023499999,-0.0019,0.0028,4.440000057,-2.869999886,245.1000061,3.50727119,0.022271411,3.513560767,-5.619839925,358.0253595,0.088193978,-6.88684418,107.6106882,-1,4.916308755,-2.666757318,3.319499474,21.09698105,3326,61.40000153,35.20000076,-2.48046875,0.023576683,147.7475666,148,0,0,0,245,0.090686083,22.271411,-17.5,-6,-5.619839925
62,-0.029999999,-0.0037,-0.0039,4.090000153,-1.5,250.5,3.509315987,0.012903868,3.470839541,-4.448547864,358.2439271,-0.101870161,-6.88685177,107.6106881,-1,4.967319362,-2.700721221,3.33590526,21.09700012,3306,61.40000153,35.20000076,-2.1875,0.030227305,141.3866504,142,0,0,0,232.5,0.077482097,12.903868,-12.5,-6,-4.448547864
63,-0.033599999,-0.0003,-0.009,3.75,-0.239999995,246.1999969,3.504202027,0.008214772,3.492043941,-3.167648058,358.5462752,0.251076573,-6.886859415,107.6106881,-1,5.001599342,-2.744438539,3.379137336,21.09309196,3366,61.40000153,35.20000076,-2.7734375,0.033601338,135.4185817,136,0,0,0,217.5,0.061506379,8.214772,-15,-6,-3.167648058
64,-0.044299997,-0.0031,-0.011899999,4.019999981,0.109999999,243.8999939,3.505224843,0.009234241,3.82932062,-2.075731446,358.8924135,0.434459267,-6.886867115,107.6106885,-1,5.00791049,-2.793358135,3.411525363,21.08912086,3386,61.40000153,35.20000076,-1.9921875,0.04440833,129.6439193,130,0,0,0,205,0.037040535,9.234241,-12.5,-6,-2.075731446
65,-0.043900002,-0.0029,-0.0142,4.630000114,2.180000067,242.1000061,3.501132865,0.008554889,4.019997065,-0.926807748,359.2571666,-0.000635268,-6.886875268,107.6106892,-1,4.997669387,-2.869912292,3.460644284,21.07705116,3354,61.40000153,35.20000076,-1.50390625,0.043995683,124.8603117,125,0,0,0,190,0.030059274,8.554889,-15,-5,-0.926807748
66,-0.045200001,-0.0025,-0.015800001,4.380000114,2.950000048,241.5,3.486815472,1.48E-05,3.989930271,0.090884662,359.5655283,0.092696054,-6.886883087,107.6106901,-1,4.952276501,-2.917336757,3.471726037,21.10087013,3314,61.29999924,35.20000076,-1.89453125,0.045269086,120.1567001,121,0,0,0,172.5,0.026002817,0.014822,-17.5,-4,0.090884662
67,-0.044400003,-0.0049,-0.0164,4.559999943,3.440000057,241.5,3.480677266,0.001105428,4.216034938,1.052655778,359.8329155,0.35187694,-6.886890971,107.6106914,-1,5.056601333,-2.950668452,3.500245873,21.08498192,3314,61.29999924,35.20000076,-2.28515625,0.044669567,116.3553928,117,0,0,0,157.5,0.017772365,1.105428,-15,-4,1.052655778
68,-0.046400003,-0.0032,-0.0187,4.78000021,5.090000153,240.1000061,3.470449348,0.001265735,4.426466194,1.905072908,359.700288,0.026239339,-6.886898946,107.6106932,-1,5.127984687,-2.980437128,3.502838888,21.09692001,3274,61.29999924,35.20000076,-2.1875,0.046510217,113.2857876,114,0,0,0,140,0.039486982,1.265735,-17.5,-3,1.905072908
69,-0.047599997,-0.0057,-0.0199,4.730000019,5.519999981,240,3.457153935,-0.004627599,4.337156749,2.679839446,359.2066522,-0.04108186,-6.886906599,107.6106951,-1,5.228120919,-3.027427665,3.515928338,21.09294128,3286,61.29999924,35.20000076,-1.796875,0.047940064,111.37681,112,0,0,0,122.5,0.1031247,-4.627599,-17.5,-2,2.679839446
70,-0.048299998,-0.0013,-0.022700001,4.639999866,6.480000019,237.1000061,3.445904155,-0.005555465,4.344162098,3.404963762,358.5253916,0.106521503,-6.88691513,107.6106977,-1,5.280674781,-3.128507339,3.499373406,21.09290123,3306,61.29999924,35.20000076,-1.796875,0.04831749,108.5784118,110,0,0,0,105,0.097491033,-5.555465,-17.5,-2,3.404963762
71,-0.0447,-0.0004,-0.025600001,4.539999962,6.920000076,238.3000031,3.430562396,-0.007755187,4.435543422,4.110603623,357.8790373,0.016232405,-6.886923307,107.6107006,-1,5.353555569,-3.188272441,3.521118865,21.08897209,3320,61.29999924,35.20000076,-2.1875,0.04470179,107.6671046,108,0,0,0,90,0.085667446,-7.755187,-15,-2,4.110603623
72,-0.052200001,0.0056,-0.0266,4.610000134,8.18999958,237.3999939,3.409082313,-0.012496149,4.457310317,4.76402348,358.0090954,-0.045294513,-6.886931525,107.6107037,-1,5.452259399,-3.214774541,3.531682891,21.09696007,3234,61.29999924,35.20000076,-2.3828125,0.052499525,107.1218277,108,0,0,0,72.5,0.081513949,-12.496149,-17.5,0,4.76402348
73,-0.040799998,0.0076,-0.032499999,4.730000019,8.489999771,238.1000061,3.387604613,-0.016331768,4.449795433,5.460752898,358.4768453,0.027023895,-6.886939801,107.6107072,-1,5.480602095,-3.246632239,3.551248897,21.08091927,3334,61.29999924,35.20000076,-2.96875,0.041501805,105.3298692,106,0,0,0,57.5,0.058461305,-16.331768,-15,-2,5.460752898
74,-0.038799997,0.0045,-0.038200002,4.690000057,9.210000038,333.5,3.359989424,-0.018424321,4.484527477,6.237762796,358.8733612,-0.047354666,-6.886947743,107.6107108,-1,5.520659774,-3.330986634,3.533318906,21.21456146,1674,61.29999924,35.20000076,-0.91796875,0.039060079,103.1968179,104,0,0,0,52.5,0.039232772,-18.424321,-5,-2,6.237762796
75,-0.037099998,0.0036,-0.041999999,4.730000019,10.02999973,334.2000122,3.331351419,-0.021161228,4.492135469,7.05189908,359.1908528,-0.071833437,-6.88695657,107.6107151,-1,5.620594226,-3.465062384,3.537570291,21.21850204,1680,61.29999924,35.20000076,-1.11328125,0.037274252,97.85398912,100,0,0,0,52.5,0.025617398,-21.161228,0,-4,7.05189908
76,-0.035,-0.0004,-0.043299999,4.710000038,10.72999954,334.7999878,3.295554061,-0.024615945,4.484402336,7.796338504,359.4607274,-0.034861126,-6.886965059,107.6107196,-1,5.648674562,-3.551796762,3.497461133,21.21847153,1626,61.29999924,35.20000076,-2.67578125,0.035002286,96.236786,97,0,0,0,52.5,0.01367764,-24.615945,0,-3,7.796338504
77,-0.0296,-0.0033,-0.043900002,4.679999828,11.56000042,335.2999878,3.26691689,-0.026336769,4.488178784,8.403170356,359.6611722,-0.010328707,-6.886973627,107.6107244,-1,5.635776522,-3.625910157,3.495393208,21.22649002,1640,61.29999924,35.20000076,-1.89453125,0.029783385,94.0339367,95,0,0,0,52.5,0.000507658,-26.336769,0,-2,8.403170356
78,-0.029100001,-0.0039,-0.0427,4.699999809,12.06000042,335.5,3.234186907,-0.026167279,4.479452635,8.808475201,359.7991299,-0.013560006,-6.886982285,107.6107295,-1,5.684047268,-3.650917922,3.494810471,21.21844101,1646,61.29999924,35.20000076,-1.015625,0.029360178,94.71824921,95,0,0,0,52.5,0.000295815,-26.167279,0,0,8.808475201
79,-0.0254,-0.0077,-0.040400002,4.639999866,12.38000011,335.8999939,3.203503389,-0.028660882,4.498609502,8.998382433,359.828952,0.029222668,-6.886917329,107.610686,-1,5.650955464,-3.687519519,3.462768116,21.21855164,1674,61.29999924,35.20000076,-2.96875,0.026541477,96.03907025,95,0,0,0,52.5,0.002378877,-28.660882,0,0,8.998382433
80,-0.023200002,-0.01,-0.038799997,4.730000019,12.47000027,336.1000061,3.164638419,-0.033945452,4.494866795,8.960037095,359.7750755,-0.08469807,-6.886884928,107.6106631,-1,5.671479034,-3.77899559,3.422670269,21.21847153,1614,61.29999924,35.20000076,-2.3828125,0.025263414,97.42276001,97,0,0,0,52.5,0.009130526,-33.945452,0,2,8.960037095
81,-0.02,-0.010100001,-0.037,4.739999771,12.43999958,336,3.133954902,-0.033782806,4.402221673,8.767799587,359.7904375,-0.078520942,-6.886865779,107.6106486,-1,5.648675268,-3.769991742,3.411450315,21.21043968,1674,61.29999924,35.20000076,-1.69921875,0.02240558,101.4748794,101,0,0,0,52.5,0.005071336,-33.782806,0,4,8.767799587
82,-0.0186,-0.012800001,-0.0363,4.539999962,12.03999996,336.7000122,3.100202103,-0.033826787,4.320787586,8.487660794,359.7122332,-0.045277603,-6.886869316,107.6106513,-1,5.588111132,-3.820311465,3.38682894,21.22647095,1640,61.29999924,35.20000076,-2.578125,0.022578751,107.6957644,105,0,0,0,52.5,0.014138228,-33.826787,0,4,8.487660794
83,-0.016700001,-0.017999999,-0.035299998,4.639999866,11.93999958,336.5,3.061335583,-0.038786165,4.301683254,8.191019581,359.5633962,-0.01320488,-6.886856738,107.6106406,-1,5.483670582,-3.898437883,3.322733102,21.22248077,1660,61.29999924,35.20000076,-2.48046875,0.024553819,112.9737834,110,0,0,0,52.5,0.022505354,-38.786165,0,5,8.191019581
84,-0.0151,-0.0198,-0.0372,4.579999924,11.64999962,336.6000061,3.026562471,-0.037090797,4.245958226,7.988209557,357.987173,-0.037706972,-6.886848444,107.6106329,-1,5.442287507,-3.944478864,3.280090162,21.21850204,1674,61.20000076,35.20000076,-2.1875,0.024900803,116.5018518,114,0,0,0,52.5,0.134983197,-37.090797,0,4,7.988209557
85,-0.012399999,-0.0092,-0.037500001,4.639999866,11.46000004,337.2000122,2.989740629,-0.039854031,4.231728851,7.808950866,356.9712548,-0.118354502,-6.886842803,107.6106272,-1,5.401149962,-3.944402161,3.249042148,21.19066238,1800,61.20000076,35.20000076,-2.48046875,0.015440207,120.3025837,118,0,0,0,52.5,0.175442517,-39.854031,0,4,7.808950866
86,-0.011100001,0.0029,-0.037999999,4.670000076,11.21000004,337.6000061,2.951898355,-0.039112691,4.219538894,7.640975391,356.5091085,-0.177048965,-6.886838924,107.6106231,-1,5.353837133,-3.943150739,3.187440176,21.21865082,1754,61.20000076,35.20000076,-1.89453125,0.011472577,124.0679806,122,0,0,0,52.5,0.182844728,-39.112691,0,4,7.640975391
87,-0.0084,0.0147,-0.039700001,4.559999943,10.96000004,338.8999939,2.916100879,-0.037970036,4.287167719,7.561330013,357.3247733,-0.099295515,-6.886836293,107.6106203,-1,5.301008749,-3.968691027,3.142103005,21.21459198,1774,61.20000076,35.20000076,-2.08984375,0.016930741,127.1036611,126,0,0,0,52.5,0.080091186,-37.970036,0,4,7.561330013
88,-0.0048,0.0113,-0.043599997,4.760000229,11.01000023,340.3999939,2.878258724,-0.036740281,4.348020123,7.709382826,358.77646,-0.253041542,-6.886834399,107.6106181,-1,5.243264958,-3.999100718,3.093697991,21.226511,1666,61.20000076,35.20000076,-1.89453125,0.012277215,127.0518635,127,0,0,0,52.5,0.009763323,-36.740281,0,1,7.709382826
89,-0.0025,0.012800001,-0.047699999,4.78000021,11.32999992,341.7999878,2.833255429,-0.039398704,4.319764247,8.052607346,360.1803111,-0.275286045,-6.886835439,107.6106191,-1,5.231105367,-4.047762795,3.066496214,21.21844101,1660,61.20000076,35.20000076,-1.9921875,0.013041856,125.8482427,127,0,0,0,52.5,-0.088783428,-39.398704,0,0,8.052607346
90,-0.063099995,0.0117,-0.063699998,4.699999809,11.60999966,343.1000061,2.787230034,-0.041858427,4.255138812,8.561319037,1.369894476,-0.195254045,-6.88683655,107.6106201,-1,5.188287272,-4.043364641,3.029145211,21.2065506,1680,61.20000076,35.20000076,-1.9921875,0.064175536,123.3683656,125,0,0,0,52.5,-0.115121476,-41.858427,0,-2,8.561319037
91,0.0019,-0.078500003,-0.070300005,4.75,12.07999992,344.2000122,2.743250389,-0.04060141,4.228546931,9.106211507,2.509022665,-0.200107261,-6.886837603,107.610621,-1,5.152118654,-3.998097999,2.995840795,21.19457054,1754,61.20000076,35.20000076,-2.3828125,0.078522993,121.274024,123,0,0,0,52.5,-0.159590065,-40.60141,0,-2,9.106211507
92,0.063900001,-0.0019,-0.062200002,4.639999866,12.73999977,345.2000122,2.692111154,-0.045491774,4.198977712,9.499022725,3.150914576,-0.091164168,-6.886838622,107.6106219,-1,5.100708372,-3.985389824,2.967274164,21.20660973,1766,61.20000076,35.20000076,-2.48046875,0.063928242,121.095348,122,0,0,0,52.5,-0.174867198,-45.491774,0,-1,9.499022725
93,0.0093,0.067699999,-0.062400002,4.570000172,13.06999969,345.8999939,2.647107739,-0.044120148,4.191299675,9.714978136,3.333829486,-0.070931882,-6.88683961,107.6106227,-1,5.074562256,-4.034900286,2.946503376,21.21063042,1720,61.20000076,35.20000076,-2.578125,0.068335787,122.528211,122,0,0,0,52.5,-0.168415889,-44.120148,0,0,9.714978136
94,0.0136,-0.018299999,-0.043599997,4.610000134,13.26000023,345.8999939,2.602106829,-0.042940021,4.1632471,9.781377331,3.144423032,-0.022723606,-6.886838104,107.6106209,-1,5.114373835,-4.049793567,2.902358285,21.21859169,1700,61.20000076,35.20000076,-1.89453125,0.022800218,123.2154071,122,0,0,0,52.5,-0.147535056,-42.940021,0,0,9.781377331
95,0.0136,-0.018299999,-0.043599997,4.610000134,13.26000023,345.8999939,2.560171146,-0.04329101,4.140603789,9.746819545,2.769970851,-0.02968484,-6.886837057,107.6106196,-1,5.152738954,-3.953236129,2.883140814,21.20267105,1734,61.20000076,35.20000076,-1.89453125,0.022800218,125.8484155,124,0,0,0,52.5,-0.123198397,-43.29101,0,2,9.746819545
96,0.0136,-0.018299999,-0.043599997,4.610000134,13.26000023,345.8999939,2.512101014,-0.04572079,4.116735973,9.650412069,2.352044888,0.040282532,-6.886836398,107.6106187,-1,5.115823312,-3.914908668,2.79057193,21.22650146,1706,61.20000076,35.20000076,-1.9921875,0.022800218,128.0224505,126,0,0,0,52.5,-0.103944771,-45.72079,0,2,9.650412069
97,0.0136,-0.018299999,-0.043599997,4.610000134,13.26000023,345.8999939,2.468120475,-0.046832964,4.108665001,9.563696422,2.002125736,0.00760095,-6.886836138,107.6106183,-1,5.031007783,-3.852122023,2.754436946,21.20258141,1740,61.20000076,35.20000076,-1.9921875,0.022800218,130.9178077,129,0,0,0,52.5,-0.088427208,-46.832964,0,3,9.563696422
98,0.0153,-0.0766,-0.0484,4.539999962,13.18000031,345.1000061,2.424141545,-0.044391524,4.136225553,9.57988791,1.647303011,0.154156052,-6.886836191,107.610618,-1,4.855135037,-3.747286528,2.732373954,21.21450233,1680,61.20000076,35.20000076,-2.08984375,0.078113059,132.2110281,131,0,0,0,52.5,-0.070071891,-44.391524,0,2,9.57988791
99,0.0099,-0.057,-0.036800001,4.559999943,13.27000046,344.8999939,2.369933982,-0.048695859,4.109022059,9.669393396,1.229206954,-0.013878673,-6.886836499,107.6106178,-1,4.583838789,-3.587229395,2.66398521,21.21051979,1706,61.20000076,35.20000076,-2.67578125,0.057853349,134.0535218,133,0,0,0,52.5,-0.044789787,-48.695859,0,2,9.669393396
100,0.0092,0.018299999,-0.064000003,4.349999905,13.18999958,344.5,2.326977034,-0.047582839,4.06220299,9.817492335,359.8519678,0.095377736,-6.886837028,107.6106177,-1,4.453891563,-3.648990328,2.624417194,21.214571,1674,61.20000076,35.20000076,-1.69921875,0.02048243,134.5067022,134,0,0,0,52.5,0.055037644,-47.582839,0,1,9.817492335
101,0.034000002,-0.039999999,-0.041000001,4.460000038,13.47000027,344.2999878,2.281974514,-0.044403128,4.080620541,9.986511651,358.525911,0.118544135,-6.886837771,107.6106177,-1,4.39045161,-3.654378514,2.560928813,21.2065506,1706,61.20000076,35.20000076,-1.89453125,0.05249762,134.5898711,134,0,0,0,52.5,0.119487196,-44.403128,0,0,9.986511651
102,0.022399999,-0.090800002,-0.048999999,4.46999979,13.68000031,343.8999939,2.229812462,-0.047008339,4.166933002,10.1807685,357.5004529,0.141366563,-6.886838573,107.6106178,-1,4.33609604,-3.602825532,2.56288986,21.20650101,1746,61.10000229,35.20000076,-2.1875,0.093522192,134.6485813,134,0,0,0,52.5,0.151538402,-47.008339,0,0,10.1807685
103,0.064300001,-0.008,-0.046400003,4.46999979,13.77999973,344.1000061,2.184809942,-0.047266029,4.219485079,10.24919729,356.9380979,-0.081077522,-6.886839443,107.6106179,-1,4.280320649,-3.563550662,2.503272056,21.22255135,1714,61.10000229,35.20000076,-1.50390625,0.064795757,134.8537036,134,0,0,0,52.5,0.166464463,-47.266029,0,0,10.24919729
104,0.016799999,-0.066599995,-0.034700003,4.590000153,13.88000011,344.2999878,2.141853828,-0.044179246,4.218981097,10.17220252,356.7571154,-0.091629604,-6.886840367,107.6106181,-1,4.226309087,-3.594725401,2.436698791,21.21459198,1720,61.10000229,35.20000076,-2.87109375,0.068686238,136.4945597,135,0,0,0,52.5,0.14952521,-44.179246,0,1,10.17220252
105,0.117699996,0.051099997,-0.0186,4.519999981,13.84000015,344.8999939,2.091736574,-0.04733282,4.300835026,10.05230948,356.8418254,-0.098074734,-6.886841298,107.6106183,-1,4.168083744,-3.644546853,2.377096212,21.20654106,1720,61.10000229,35.20000076,-0.4296875,0.128314063,138.3291793,137,0,0,0,52.5,0.15002133,-47.33282,0,2,10.05230948
106,0.033,-0.065699995,-0.0328,4.650000095,13.61999989,345.7000122,2.036506195,-0.051012427,4.365432699,9.938282287,357.161121,-0.155577706,-6.886842336,107.6106186,-1,4.103028164,-3.694654855,2.343728571,21.21052933,1694,61.10000229,35.20000076,-2.578125,0.073522033,140.4731699,139,0,0,0,52.5,0.130708054,-51.012427,0,2,9.938282287
107,0.055,-0.081300005,-0.0352,4.710000038,13.47000027,346.7000122,1.991503675,-0.047516007,4.330804014,9.883463573,357.5717142,-0.263610081,-6.886843301,107.610619,-1,4.10755427,-3.685218807,2.297020779,21.22649002,1674,61.10000229,35.20000076,-2.7734375,0.098156461,142.0155085,141,0,0,0,52.5,0.10542354,-47.516007,0,2,9.883463573
108,0.039900001,0.0254,-0.0363,4.78000021,13.35000038,348,1.939341683,-0.050508823,4.291673232,9.958913941,358.5214827,-0.197409929,-6.886844197,107.6106193,-1,4.096376121,-3.694808078,2.239464477,21.21853065,1686,61.10000229,35.20000076,-2.67578125,0.047298732,142.3141312,142,0,0,0,52.5,0.037844174,-50.508823,0,1,9.958913941
109,0.063500002,-0.038699999,-0.0359,4.630000114,13.47000027,349,1.887179662,-0.051087856,4.34032372,10.17604389,359.3649743,-0.002623338,-6.886844991,107.6106195,-1,4.07175614,-3.749836272,2.194534399,21.22243118,1620,61.10000229,35.20000076,-2.1875,0.074363568,141.5902824,142,0,0,0,52.5,0.004705052,-51.087856,0,0,10.17604389
110,0.079700001,-0.0047,-0.044099998,4.690000057,13.76000023,349.7000122,1.835018445,-0.049885802,4.364048884,10.51056148,360.1245485,-0.216085557,-6.886843371,107.6106189,-1,4.033382737,-3.751135384,2.145832501,21.2304306,1600,61.10000229,35.20000076,-1.9921875,0.079838462,139.5478546,141,0,0,0,52.5,-0.032025836,-49.885802,0,-1,10.51056148
111,-0.0131,-0.0418,-0.055400003,4.659999847,14.02999973,350.6000061,1.772626985,-0.054196704,4.317716713,10.91227524,0.638994976,-0.146794192,-6.886841644,107.6106183,-1,4.093375085,-3.820319415,2.110923544,21.22245216,1646,61.10000229,35.20000076,-1.796875,0.04380468,137.6657299,139,0,0,0,52.5,-0.056151297,-54.196704,0,-2,10.91227524
112,0.057700001,0.0044,-0.049599998,4.699999809,14.35999966,351.3999939,1.713306282,-0.057451867,4.307159573,11.30848107,1.287269626,-0.116075478,-6.886839826,107.6106177,-1,4.120658022,-3.882653022,2.039949205,21.23048019,1626,61.10000229,35.20000076,-2.48046875,0.057867522,135.7141349,137,0,0,0,52.5,-0.090953358,-57.451867,0,-2,11.30848107
113,0.041000001,0.047499999,-0.064000003,4.659999847,15.02000046,9.800000191,1.652961988,-0.056472503,4.283617636,11.64921217,1.787308022,-0.166775181,-6.88683792,107.6106171,-1,4.112537566,-3.914340879,1.985560722,21.21851158,1694,61.10000229,35.20000076,-2.28515625,0.06274751,135.6078374,136,0,0,0,55,-0.105917193,-56.472503,2.5,-1,11.64921217
114,0.071099997,-0.0264,-0.0458,4.610000134,15.14999962,9.800000191,1.591594916,-0.057606615,4.211815157,11.80628028,2.12936986,-0.048273976,-6.886839842,107.6106177,-1,4.144325343,-3.896200297,1.959959612,21.21051979,1706,61,35.20000076,-1.2109375,0.075843058,136.532977,136,0,0,0,60,-0.116219997,-57.606615,5,0,11.80628028
115,0.065899998,0.0076,-0.048,4.579999924,15.53999996,9.800000191,1.534318984,-0.058991678,4.253202753,11.70265561,2.254834244,0.103031422,-6.886841474,107.6106181,-1,4.12879379,-3.811789838,1.906031777,21.10102081,3306,61,35.20000076,-1.6015625,0.06633679,137.585594,136,0,0,0,75,-0.117119864,-58.991678,15,0,11.70265561
116,0.026000001,-0.059700001,-0.0251,4.619999886,15.15999985,353,1.477043048,-0.059163786,4.328650132,11.34142014,2.24916402,0.022594761,-6.886839818,107.6106176,-1,4.199731083,-3.712430092,1.841194253,21.08114052,3432,61,35.20000076,-2.48046875,0.065115975,142.4411863,139,0,0,0,80,-0.113135584,-59.163786,5,3,11.34142014
117,0.116400003,-0.051799998,-0.023200002,4.570000172,14.72000027,9.699999809,1.428972174,-0.056415461,4.288458426,10.78157991,2.123679349,-0.03138295,-6.886838056,107.610617,-1,4.21451912,-3.69639668,1.779700471,21.21847153,1654,61,35.20000076,-1.796875,0.127405654,148.9321007,145,0,0,0,90,-0.099800192,-56.415461,10,6,10.78157991
118,0.0559,-0.104800001,-0.0089,4.610000134,14.10000038,10,1.376810167,-0.055309594,4.221506559,10.13536913,1.918350696,0.060623236,-6.886836169,107.6106163,-1,4.179808539,-3.719740338,1.687932004,21.08492088,3386,61,35.20000076,-2.3828125,0.118776471,156.8231368,152,0,0,0,105,-0.090040162,-55.309594,15,7,10.13536913
119,0.0131,-0.0125,-0.031500001,4.570000172,13.60000038,354,1.331807632,-0.052330416,4.260292241,9.53791561,1.546882793,0.065778373,-6.886834037,107.6106156,-1,4.182286383,-3.736027516,1.634018745,21.10486984,3214,61,35.20000076,-1.69921875,0.018106905,164.5544522,160,0,0,0,107.5,-0.073509052,-52.330416,2.5,8,9.53791561
120,0.047200002,0.0073,-0.025600001,4.639999866,13.26000023,10.10000038,1.28987347,-0.050961848,4.291935901,9.039439878,0.73106212,0.00884432,-6.886831703,107.6106148,-1,4.147028844,-3.826773623,1.602987016,21.21062088,1700,61,35.20000076,-1.796875,0.047761178,171.3108171,168,0,0,0,117.5,-0.005599392,-50.961848,10,8,9.039439878
121,0.0495,-0.047200002,-0.034900002,4.639999866,12.67000008,10.19999981,1.247939308,-0.04522093,4.304831432,8.792387072,359.9840486,0.103031328,-6.886829208,107.610614,-1,4.065798174,-3.848775199,1.531311899,21.09695053,3234,61,35.20000076,-2.3828125,0.068396565,176.2925946,174,0,0,0,132.5,-0.034225069,-45.22093,15,6,8.792387072
122,0.064999998,-0.0298,-0.040099997,4.730000019,12.36999989,353.7000122,1.200891216,-0.049050756,4.252112785,8.787473676,359.1238556,0.012173489,-6.886833573,107.6106153,-1,3.998432699,-3.751676489,1.484193412,21.1086998,3114,61,35.20000076,-2.08984375,0.071505522,172.2926583,175,0,0,0,137.5,0.068452105,-49.050756,5,1,8.787473676
123,0.054299999,0.018299999,-0.0317,4.489999771,12.53999996,234.5,1.161002625,-0.044497915,4.247049475,8.983490194,358.1665975,0.049020536,-6.886830944,107.6106145,-1,4.036224636,-3.752634164,1.433410534,21.2184124,1626,61.10000229,35.20000076,-1.89453125,0.057300784,166.6510771,170,0,0,0,127.5,0.133098468,-44.497915,-10,-5,8.983490194
124,0.0403,-0.021600001,-0.041999999,4.710000038,12.39000034,235.6999969,1.110886176,-0.043039516,4.390825274,9.30574394,357.4598063,0.108877345,-6.886827993,107.6106136,-1,4.098920831,-3.795420778,1.404276774,21.09302139,3280,61.10000229,35.20000076,-1.30859375,0.045723627,160.4740347,164,0,0,0,115,0.144356236,-43.039516,-12.5,-6,9.30574394
125,0.17719999,0.033599999,-0.021299999,4.71999979,12.81000042,353.1000061,1.068952013,-0.040504791,4.338941614,9.551161793,357.054024,-0.133003519,-6.886832769,107.6106151,-1,4.06058412,-3.832349645,1.376821428,21.09285164,3320,61.10000229,35.20000076,-1.50390625,0.180357412,154.5123032,158,0,0,0,110,0.153413549,-40.504791,-5,-6,9.551161793
126,0.045000002,0.016000001,-0.040200002,4.710000038,13.18999958,352.7999878,1.024972279,-0.044225298,4.303423273,9.687885262,356.9113373,-0.087444952,-6.886836466,107.6106162,-1,4.000692992,-3.829199827,1.309177955,21.07318115,3526,61,35.10000229,-2.3828125,0.047759818,149.0793721,152,0,0,0,105,0.153162077,-44.225298,-5,-6,9.687885262
127,0.045900002,0.0087,-0.032700002,4.659999847,13.31999969,353.7999878,0.980992515,-0.04300623,4.328118388,9.670866048,356.9775144,-0.095939631,-6.886839426,107.610617,-1,4.092803069,-3.797687706,1.248480869,21.09301186,3286,61,35.10000229,-2.578125,0.046717237,145.455226,148,0,0,0,100,0.146653697,-43.00623,-5,-4,9.670866048
128,0.021600001,0.068499997,-0.043700002,4.630000114,13.17000008,354.7000122,0.941103954,-0.040722098,4.368351096,9.46937919,357.0875362,-0.132826204,-6.88684181,107.6106177,-1,4.104641192,-3.754470231,1.217772159,21.08527184,3486,61,35.10000229,-1.50390625,0.071824854,142.8632541,144,0,0,0,95,0.134645611,-40.722098,-5,-4,9.46937919
129,0.055400003,0.052900001,-0.0254,4.730000019,12.98999977,355.5,0.90223815,-0.042226858,4.464337021,9.114926978,357.2828967,-0.084167028,-6.886843796,107.6106182,-1,4.099869941,-3.713394802,1.165431291,21.1127224,3380,61,35.20000076,-1.9921875,0.076600068,141.3149479,142,0,0,0,90,0.126941353,-42.226858,-5,-2,9.114926978
130,0.223199993,-0.0211,0.0127,4.75,12.60000038,355.8999939,0.865417857,-0.042696729,4.479226698,8.675680229,357.5802973,-0.134637189,-6.886841537,107.6106177,-1,4.128568165,-3.64305297,1.156357112,21.21847153,1646,61,35.20000076,-2.578125,0.224195109,141.8581492,142,0,0,0,90,0.11120344,-42.696729,0,0,8.675680229
131,0.055099998,0.0093,-0.022299999,4.889999866,12.28999996,357,0.833711584,-0.039854523,4.46110513,8.262516682,357.7620452,-0.078141347,-6.886839166,107.6106172,-1,4.14104603,-3.583485837,1.090606065,21.22249031,1666,61,35.20000076,-1.69921875,0.055879332,141.5890374,142,0,0,0,90,0.103577085,-39.854523,0,0,8.262516682
132,0.048999999,-0.032700002,-0.019299999,4.820000172,11.77999973,358.7000122,0.782572348,-0.042555954,4.521231885,7.855703307,357.9566129,0.03563773,-6.886841585,107.6106176,-1,4.261924959,-3.643243151,1.027984984,21.22646141,1620,61.10000229,35.20000076,-1.796875,0.058909168,141.0798845,142,0,0,0,90,0.096669629,-42.555954,0,0,7.855703307
133,0.0392,0.0308,-0.028299998,4.929999828,11.34000015,358.7999878,0.741660972,-0.039735824,4.581572618,7.574612927,358.1160284,-0.040626891,-6.886839346,107.6106172,-1,4.224153019,-3.613835407,0.983787498,21.22650146,1640,61.10000229,35.20000076,-2.48046875,0.049852583,141.0515721,142,0,0,0,90,0.087835081,-39.735824,0,0,7.574612927
134,0.048799999,-0.029999999,-0.0306,4.989999771,11.10000038,0.899999976,0.706886251,-0.041824911,4.581438508,7.429168862,358.256665,-0.086866961,-6.886841547,107.6106175,-1,4.279954855,-3.618883412,0.933632614,21.22248077,1646,61.10000229,35.20000076,-1.69921875,0.057283853,139.492799,141,0,0,0,90,0.083121225,-41.824911,0,-1,7.429168862
135,0.056200001,-0.018200001,-0.039299998,4.980000019,10.84000015,1.700000048,0.664952118,-0.041007563,4.568938047,7.399567183,358.3368101,0.052179416,-6.886843298,107.6106177,-1,4.287873389,-3.572430576,0.882977173,21.2185421,1680,61,35.20000076,-2.1875,0.059073515,135.9676016,138,0,0,0,90,0.078624681,-41.007563,0,-3,7.399567183
136,0.040599998,-0.0139,-0.043099999,5.059999943,10.85000038,2.299999952,0.609721739,-0.044593852,4.645667591,7.458973842,358.471023,0.005400975,-6.886844658,107.6106178,-1,4.300818353,-3.600349501,0.841161176,21.21848106,1654,61,35.20000076,-2.1875,0.042913516,131.5149536,134,0,0,0,90,0.070502199,-44.593852,0,-4,7.458973842
137,0.037500001,-0.100400001,-0.0207,4.96999979,11.10000038,13,0.571878691,-0.045945641,4.65216426,7.539003613,358.533592,-0.110939994,-6.88684593,107.6106178,-1,4.325943118,-3.694924884,0.808978597,21.21856117,1654,61,35.20000076,-1.796875,0.107174672,127.7409006,130,0,0,0,90,0.065710448,-45.945641,0,-4,7.539003613
138,0.0504,0.0152,-0.042300001,4.980000019,11.01000023,13.19999981,0.513579984,-0.047610708,4.642105549,7.576507558,358.5650815,-0.067551813,-6.886846924,107.6106178,-1,4.369431278,-3.804887042,0.761354222,21.23048973,1666,61,35.20000076,-1.796875,0.052642189,124.446333,127,0,0,0,92.5,0.068094023,-47.610708,2.5,-3,7.576507558
139,0.048799999,0.0471,-0.052000001,5.059999943,11.06999969,13.39999962,0.467554708,-0.049481217,4.681514801,7.473521836,358.6082155,-0.04395751,-6.886847795,107.6106177,-1,4.359546581,-3.852935979,0.741229392,21.21846199,1674,61,35.20000076,-1.69921875,0.067822193,122.9686886,124,0,0,0,97.5,0.068724088,-49.481217,5,-3,7.473521836
140,0.041499998,-0.0175,-0.035999998,5.079999924,10.72000027,14,0.422552128,-0.047408599,4.704267878,7.215463432,358.6590305,0.00449093,-6.886848499,107.6106176,-1,4.408307828,-4.013461248,0.664825467,21.22643089,1634,61,35.20000076,-3.06640625,0.045038871,122.234208,122,0,0,0,102.5,0.068722717,-47.408599,5,-2,7.215463432
141,0.034700003,0.061700001,-0.0284,5.010000229,10.27000046,7.099999905,0.381640811,-0.046432253,4.674304016,6.777322454,358.5144304,-0.030492693,-6.886849127,107.6106175,-1,4.447477271,-4.040188874,0.632638423,21.09692001,3266,61,35.20000076,-1.9921875,0.070788278,122.4457773,122,0,0,0,117.5,0.081243336,-46.432253,15,0,6.777322454
142,-0.0188,-0.0015,-0.034499999,5.28000021,9.840000153,14.19999981,0.345843334,-0.042768676,4.719048644,6.162971448,358.2963002,0.044682801,-6.886847941,107.6106179,-1,4.417643224,-4.003380248,0.567485444,21.10480118,3194,61,35.20000076,-2.1875,0.018859745,124.3590659,122,0,0,0,122.5,0.097771212,-42.768676,5,0,6.162971448
143,0.066599995,0.017100001,-0.0198,5.150000095,9,14.19999981,0.302886386,-0.044458557,4.716709399,5.492901821,358.0765846,-0.001913036,-6.886846699,107.6106185,-1,4.43826086,-4.022552065,0.512804926,21.23044014,1634,61,35.20000076,-2.1875,0.068760231,126.0230446,126,0,0,0,132.5,0,-44.458557,10,4,5.492901821
144,-0.046599999,0.027799999,-0.042099997,5.079999924,8.18999958,7.400000095,0.270157237,-0.044654272,4.736175061,4.643530365,357.6177184,0.150128188,-6.886845307,107.6106192,-1,4.385738206,-4.012274626,0.455833118,21.21846199,1640,61.10000229,35.20000076,-2.28515625,0.054262325,126.0230446,126,0,0,0,137.5,0,-44.654272,5,0,4.643530365
145,0.085300006,0.0208,-0.015800001,5.199999809,7.480000019,7.699999809,0.241519351,-0.037337605,4.796682792,3.923124474,357.0987707,0.15959831,-6.886843923,107.61062,-1,4.307584619,-4.041103964,0.408215122,21.21443176,1660,61.10000229,35.20000076,-1.30859375,0.087799379,126.0230446,126,0,0,0,137.5,0,-37.337605,0,0,3.923124474
146,0.0394,-0.0029,-0.025899999,5.320000172,6.840000153,7.900000095,0.204699059,-0.043536425,4.864055355,3.258425031,356.442658,0.093220471,-6.886842351,107.610621,-1,4.357969542,-4.031084027,0.356988995,21.22242165,1620,61.10000229,35.20000076,-2.1875,0.039506582,126.0230446,126,0,0,0,137.5,0,-43.536425,0,0,3.258425031
147,0.061099999,0.010899999,-0.0239,5.320000172,6.28000021,8,0.179129381,-0.035078678,4.884024145,2.771303414,355.7609327,0.017375278,-6.88684058,107.6106222,-1,4.283533192,-4.076639444,0.333340588,21.21845245,1620,61.10000229,35.20000076,-1.89453125,0.062064642,126.0230446,126,0,0,0,137.5,0,-35.078678,0,0,2.771303414
148,0.035599999,-0.010100001,-0.027000001,5.25,5.949999809,8.100000381,0.142309208,-0.034666125,4.87851921,2.491973768,354.9656595,-0.005506724,-6.886838876,107.6106236,-1,4.3507426,-4.0686724,0.27102929,21.23041153,1600,61.10000229,35.20000076,-1.40625,0.037004999,126.0230446,126,0,0,0,137.5,0,-34.666125,0,0,2.491973768
149,0.035599999,-0.023,-0.031399999,5.269999981,5.739999771,8,0.106511731,-0.03816846,4.860185371,2.345541812,354.1612838,0.069896617,-6.886841092,107.6106217,-1,4.382432775,-4.157866508,0.212384665,21.2224617,1646,61.10000229,35.20000076,-2.3828125,0.042383487,126.0230446,126,0,0,0,137.5,0,-38.16846,0,0,2.345541812
150,-0.012399999,-0.0099,-0.048299998,5.320000172,5.809999943,8,0.07173707,-0.037764005,4.867514892,2.448597365,353.3317056,0.09117213,-6.886842808,107.6106199,-1,4.410217378,-4.219910257,0.158105306,21.21041107,1640,61.10000229,35.20000076,-2.28515625,0.015867261,126.0230446,126,0,0,0,137.5,0,-37.764005,0,0,2.448597365
151,0.033099998,-0.027799999,-0.036699999,5.099999905,5.920000076,7.900000095,0.02673449,-0.040718596,4.869696536,2.6388655,352.4542645,0.187778883,-6.886844157,107.6106183,-1,4.355929653,-4.267495429,0.143906917,21.22642136,1606,61.10000229,35.20000076,-2.48046875,0.043225569,126.0230446,126,0,0,0,137.5,0,-40.718596,0,0,2.6388655
152,-0.023,-0.0125,-0.051799998,5.230000019,6.28000021,7.900000095,-0.011108499,-0.038869563,4.89133231,3.047998686,351.4439771,0.105190456,-6.886845249,107.610617,-1,4.375466592,-4.392374845,0.130701634,21.22642136,1614,61.10000229,35.20000076,-0.13671875,0.02617728,126.0230446,126,0,0,0,137.5,0,-38.869563,0,0,3.047998686
153,0.032200001,0.007900001,-0.040599998,5.25,6.760000229,7.699999809,-0.053042631,-0.036422733,4.851453244,3.447844938,350.4226193,-0.059259762,-6.886843867,107.6106187,-1,4.361754527,-4.481235978,0.076555671,21.21451187,1620,61.10000229,35.20000076,-1.89453125,0.033154941,126.0230446,126,0,0,0,137.5,0,-36.422733,0,0,3.447844938
154,0.0374,-0.042300001,-0.0403,5.059999943,7.150000095,7.5,-0.093954067,-0.037523072,4.796534587,3.944059371,349.3073943,0.067515209,-6.886844969,107.6106173,-1,4.325337141,-4.630419922,0.03233729,21.21448135,1660,61.10000229,35.20000076,-2.3828125,0.05646282,126.0230446,126,0,0,0,137.5,0,-37.523072,0,0,3.944059371
155,0.056499999,-0.0187,-0.038400002,5.190000057,7.690000057,7.400000095,-0.147138815,-0.038558066,4.769791511,4.354600504,348.1898186,0.045243908,-6.886843476,107.6106192,-1,4.275469255,-4.743266708,-0.011475473,21.21041107,1680,61.10000229,35.20000076,-1.30859375,0.059514199,126.0230446,126,0,0,0,137.5,0,-38.558066,0,0,4.354600504
156,0.008,0.040599998,-0.040099997,5.130000114,7.829999924,7.099999905,-0.172708492,-0.034764938,4.819285528,4.245780124,347.0685801,0.395535364,-6.886844951,107.6106173,-1,4.245967547,-4.79456931,-0.016219081,21.20639038,1614,61.10000229,35.10000229,-1.9921875,0.04138067,126.0230446,126,0,0,0,137.5,0,-34.764938,0,0,4.245780124
157,0.0065,-0.0152,0.022299999,5.619999886,6.289999962,6.900000095,-0.172708492,-0.026836287,5.323438318,2.377212166,345.9744848,0.796995505,-6.886849713,107.6106158,0,4.255199662,-4.89557397,-0.059239739,21.22641182,1594,61.10000229,35.10000229,-1.30859375,0.016531485,126.0230446,126,0,0,0,137.5,0,-26.836287,0,0,2.377212166
158,0.0188,-0.0032,0.0137,6.159999847,5.079999924,6.800000191,-0.163503389,-0.005711683,5.679428957,1.877205696,344.8245723,0.20826053,-6.886849335,107.6106021,0,4.297570571,-5.027285295,-0.101417689,21.22645187,1614,61.10000229,35.10000229,-2.1875,0.019070396,126.0230446,126,0,0,0,137.5,0,-5.711683,0,0,1.877205696
159,0.0147,-0.0104,-0.0129,6.239999771,5.829999924,6.5,-0.164526205,0.006884182,5.125287564,3.112344368,343.588583,-0.748503313,-6.886831313,107.6106091,0,4.369547769,-5.072104244,-0.133971351,21.22242165,1620,61.10000229,35.20000076,-1.796875,0.018006943,126.0230446,126,0,0,0,137.5,0,6.884182,0,0,3.112344368
160,0.028999999,-0.010100001,0.007,5.460000038,7.199999809,6,-0.163503389,0.010168335,4.405311338,4.242707542,342.4300054,-0.790258644,-6.886809294,107.6106211,0,4.423450927,-5.023645471,-0.124016691,21.21843147,1614,61.10000229,35.20000076,-2.08984375,0.030708467,126.0230446,126,0,0,0,137.5,0,10.168335,0,0,4.242707542
161,0.195899993,-0.0231,0.061500002,4.940000057,7.699999809,5.599999905,-0.150207143,0.015070026,4.153378877,4.308177787,341.3427985,0.079294392,-6.886788873,107.610632,0,4.484823318,-4.965113376,-0.073176002,21.23042107,1594,61.10000229,35.20000076,-2.28515625,0.197257236,126.0230446,126,0,0,0,137.5,0,15.070026,0,0,4.308177787
162,-0.0009,-0.0075,-0.0036,5.019999981,7.800000191,5.400000095,-0.141002159,0.014454031,4.489911542,4.528967581,340.1950727,0.256133316,-6.886771867,107.6106407,0,4.521145329,-4.897533601,-0.046848264,21.22242165,1634,61.20000076,35.20000076,-2.3828125,0.007553807,126.0230446,126,0,0,0,137.5,0,14.454031,0,0,4.528967581
163,0.078900002,-0.017899999,0.028299998,5.309999943,7.889999866,5.099999905,-0.134865384,0.008789686,4.462119073,4.576296184,339.0771963,-0.333457628,-6.886758237,107.6106476,0,4.559417691,-4.817700687,-0.01901381,21.226511,1660,61.20000076,35.20000076,-2.48046875,0.080905008,126.0230446,126,0,0,0,137.5,0,8.789686,0,0,4.576296184
164,0.0003,-0.008,0.0017,4.889999866,8.050000191,4.699999809,-0.134865384,0.004227942,4.254784316,4.759236506,337.9714018,-0.109604402,-6.886747463,107.6106533,0,4.711278614,-4.718606701,-0.028388424,21.22642136,1700,61.20000076,35.20000076,-1.9921875,0.008005623,126.0230446,126,0,0,0,137.5,0,4.227942,0,0,4.759236506
