Time,field.velocity_x,field.velocity_y,field.velocity_z,field.dvl_roll,field.dvl_pitch,field.dvl_yaw,field.depth_data,field.depth_rate,field.roll_data,field.pitch_data,field.yaw_data,field.yaw_rate_data,field.lat,field.long,field.gps_status,field.navigasi_north,field.navigasi_east,field.navigasi_depth,field.voltage,field.current,field.humidity,field.temperature,field.pressure,field.surge,field.des_mm,field.cur_mm,field.roll_sp,field.servo_position,field.yaw_sp,field.internal_volume,field.bow_percentage,be_rate,depth_rate,mm_rate,pitch
0,0.079700001,0.018999999,-0.0027,4.869999886,6.829999924,356.1000061,-0.043837647,-0.009281799,4.462615367,3.885643592,347.167012,-0.085379494,-6.886690017,107.610692,0,-2.326654912,1.37548384,0.075726244,21.23051071,1674,61.40000153,35.29999924,-1.9921875,0.081933449,159.8616175,159,0,0,0,192.5,0.12102133,0,-9.281799,0,3.885643592
1,-0.0071,0.0147,-0.0328,4.900000095,7.880000114,356.7000122,-0.059179406,-0.007774559,4.321942474,4.90169939,347.4551462,-0.011031908,-6.886690426,107.6106929,0,-2.221467362,1.847457272,0.043794352,21.22650146,1674,61.40000153,35.29999924,-2.48046875,0.016324828,159.8616175,159,0,0,0,192.5,0.118301541,0,-7.774559,0,4.90169939
2,0.0037,0.072999999,-0.0144,4.71999979,9.239999771,8.5,-0.080657821,-0.008813539,4.290549524,6.058601485,347.7763279,-0.054093306,-6.886687512,107.6106964,0,-2.032249922,2.284319645,0.055507291,21.23447037,1646,61.40000153,35.29999924,-2.578125,0.073093706,159.8616175,159,0,0,0,195,0.105656542,2.5,-8.813539,0,6.058601485
3,0.0033,-0.0044,-0.0239,4.849999905,10.17000008,9.300000191,-0.093954067,-0.008136201,4.265078788,6.587334072,348.0174466,0.062668907,-6.886685565,107.6106998,-1,-1.9653127,2.705443411,0.054632609,21.23455048,1700,61.40000153,35.29999924,-2.28515625,0.0055,159.8616175,159,0,0,0,200,0.075238585,5,-8.136201,0,6.587334072
4,-0.064099997,0.0139,0.0032,4.610000134,10.36999989,10.5,-0.087817292,-0.001738569,4.100235689,5.614024059,348.3263277,-0.52773418,-6.886682842,107.6107032,-1,-1.751623066,3.283035856,0.091671484,21.19524193,2126,61.40000153,35.29999924,-2.96875,0.065589783,162.9333718,162,0,0,0,205,0.300000012,5,-1.738569,3,5.614024059
5,-0.0239,0.0495,0.0147,4.090000153,9.140000343,10.89999962,-0.074521165,0.001280332,3.32403024,4.582598094,350.2501105,-0.740038765,-6.886679314,107.6107065,-1,-1.94301353,3.274043228,0.066970076,21.05373001,3926,61.40000153,35.29999924,-2.7734375,0.054967809,167.0362732,167,0,0,0,217.5,0.300000012,12.5,1.280332,5,4.582598094
6,-0.0132,0.090099998,0.022399999,3.630000114,7.769999981,11.5,-0.064293246,0.003480271,3.563508795,3.79991968,353.3560607,0.671764533,-6.886675048,107.6107097,-1,-2.164393333,3.2910824,-0.00128733,21.09717178,3506,61.40000153,35.29999924,-1.6015625,0.09106179,168.442261,168,0,0,0,235,0.203062788,17.5,3.480271,1,3.79991968
7,-0.0207,0.127199993,-0.0054,4.429999828,7.539999962,12.60000038,-0.054065447,0.005288744,4.60892389,3.364103212,356.6373078,0.477760312,-6.886671355,107.6107117,0,-2.407447122,3.258658425,0.047069986,21.10111046,3380,61.40000153,35.29999924,-2.48046875,0.128873303,166.222943,167,0,0,0,255,0.009543115,20,5.288744,-1,3.364103212
8,0.129500002,0.103599995,0.022500001,5.320000172,6.809999943,14.19999981,-0.038723688,0.009077825,4.469862884,2.955621998,359.4251651,-0.578265524,-6.886667955,107.6107163,0,-2.652449891,3.288547394,0.020801622,21.09311104,3500,61.40000153,35.29999924,-2.3828125,0.165840916,164.9564737,165,0,0,0,272.5,0.05780511,17.5,9.077825,-2,2.955621998
9,0.061099999,0.057500001,0.0151,4.880000114,6.840000153,14.5,-0.027473073,0.008231876,3.981921656,2.495829443,1.489869835,-0.284131596,-6.886666548,107.6107201,0,-1.920177506,4.120595732,0.017887367,21.09311104,3452,61.40000153,35.29999924,-2.08984375,0.08390149,163.3738871,164,0,0,0,290,-0.143408939,17.5,8.231876,-1,2.495829443
10,0.0255,0.028999999,0.020100001,4.730000019,5.789999962,14.80000019,-0.015199642,0.009331468,4.292719636,2.121968373,2.777828912,0.526036284,-6.886669304,107.6107165,-1,-1.482360627,4.557182351,0.042357528,21.10491943,3306,61.40000153,35.29999924,-1.30859375,0.038616705,163.0362085,164,0,0,0,310,-0.148392767,20,9.331468,0,2.121968373
11,0.0319,-0.01,0.030400001,5.389999866,5.25,15.30000019,0.006278892,0.012010733,4.567470093,1.401417052,3.225921185,-0.132423099,-6.886664987,107.6107195,-1,-1.01783227,5.091435694,0.060295687,21.06967163,3726,61.5,35.29999924,-2.48046875,0.033430674,165.8305348,165,0,0,0,327.5,-0.168523178,17.5,12.010733,1,1.401417052
12,0.0262,0.038200002,0.0187,5.179999828,4.690000057,15.30000019,0.02162065,0.012667644,4.073405911,0.807686009,3.137682915,-0.551608723,-6.886660556,107.6107224,-1,-0.543551346,5.953129645,0.056160744,21.07339096,3660,61.5,35.29999924,-2.1875,0.046321487,166.1117922,166,0,0,0,347.5,-0.146323994,20,12.667644,1,0.807686009
13,0.040400002,0.0041,0.018299999,4.789999962,3.859999895,15.19999981,0.055372496,0.020071976,3.908992478,0.055063858,2.533990914,0.103669207,-6.886655821,107.6107255,-1,-0.529895833,6.021338622,0.081078373,21.1010704,3354,61.5,35.29999924,-2.28515625,0.040607514,168.084251,168,0,0,0,365,-0.10097824,17.5,20.071976,2,0.055063858
14,0.0175,-0.0004,0.038799997,4.75,3.210000038,15.10000038,0.087078829,0.025009139,4.07098936,-0.666940828,1.883690406,-0.015669683,-6.886651416,107.6107283,-1,-0.501303719,6.005656465,0.047380366,21.09706116,3526,61.5,35.29999924,-2.28515625,0.017504571,170.5439474,170,0,0,0,385,-0.070717394,20,25.009139,2,-0.666940828
15,0.002,-0.0065,0.048999999,4.710000038,2.109999895,14.69999981,0.132081289,0.031735275,3.873431426,-1.495158015,1.06776616,-0.389867329,-6.886646644,107.6107311,-1,-0.544384783,6.003523889,0.073763307,21.09714127,3420,61.5,35.29999924,-2.7734375,0.006800735,172.8896854,172,0,0,0,402.5,-0.002435306,17.5,31.735275,2,-1.495158015
16,0.0275,-0.015600001,0.055300001,4.46999979,1.870000005,14.19999981,0.16685607,0.029212011,3.705468764,-2.373080582,0.169300149,-0.125231039,-6.886641701,107.6107338,-1,-0.522359556,5.905654931,0.09392105,21.10111046,3360,61.5,35.29999924,-1.40625,0.03161661,176.1817804,176,0,0,0,422.5,-0.027108992,20,29.212011,4,-2.373080582
17,0.0071,-0.016000001,0.056599997,4.449999809,0.5,14,0.223109145,0.037282709,3.605929767,-3.425076699,359.3572932,-0.204868622,-6.886636574,107.6107365,-1,-0.516843476,5.854675767,0.11781147,21.09706116,3346,61.5,35.29999924,-2.08984375,0.017504572,182.2093365,182,0,0,0,442.5,0.063412972,20,37.282709,6,-3.425076699
18,-0.0029,-0.017100001,0.067900002,4.340000153,-0.150000006,14,0.284476299,0.049757764,3.459960365,-4.469761233,358.3538669,-0.237098708,-6.886631214,107.6107389,-1,-0.574382538,5.890323992,0.111477485,21.09320068,3366,61.5,35.29999924,-2.67578125,0.017344164,188.1790603,188,0,0,0,460,0.113741465,17.5,49.757764,6,-4.469761233
19,0.007900001,-0.0254,0.075599998,4.389999866,-1.409999967,13.60000038,0.349934478,0.05379406,3.276533572,-5.646305811,357.5325437,-0.252467061,-6.886625638,107.6107412,-1,-0.59735046,5.945411046,0.159528509,21.07338142,3546,61.5,35.29999924,-2.1875,0.026600188,195.307053,195,0,0,0,480,0.148982614,20,53.79406,7,-5.646305811
20,0.0073,-0.0141,0.0757,3.809999943,-2.380000114,13.39999962,0.418460984,0.057381403,3.088381094,-6.738300156,357.0825887,-0.095142035,-6.886619522,107.6107434,-1,-0.656788119,5.995373784,0.200702159,21.0931015,3540,61.60000229,35.29999924,-2.1875,0.015877658,201.891741,201,0,0,0,497.5,0.16474922,17.5,57.381403,6,-6.738300156
21,0.019399999,-0.0075,0.0788,3.970000029,-3.75,13.69999981,0.493124266,0.062720731,3.062629111,-7.660837405,357.0728849,-0.038617787,-6.886613781,107.6107452,-1,-0.721805421,6.05928688,0.231495796,21.08903122,3406,61.60000229,35.29999924,-0.625,0.020799278,206.5391981,206,0,0,0,517.5,0.140342146,20,62.720731,5,-7.660837405
22,0.019399999,-0.0075,0.0788,3.970000029,-3.75,13.69999981,0.568810363,0.067733705,3.020916917,-8.454517574,357.3972921,0.037844473,-6.886607559,107.6107469,-1,-0.756199067,6.046181888,0.275765995,21.10503006,3314,61.60000229,35.29999924,-1.69921875,0.020799278,210.0612268,210,0,0,0,535,0.114151478,17.5,67.733705,4,-8.454517574
23,0.0032,0.0198,0.077599995,3.809999943,-5.849999905,13.89999962,0.646541972,0.069353864,3.237508285,-8.934266533,357.9413329,0.3674219,-6.88660118,107.6107484,-1,-0.747298586,6.032739284,0.340407634,21.23451996,1660,61.60000229,35.29999924,-1.30859375,0.020056919,211.5230072,211,0,0,0,545,0.076431081,10,69.353864,1,-8.934266533
24,0.028200001,0.0219,0.074099995,4.28000021,-6,14.5,0.720182498,0.070240468,3.310855383,-9.120350336,358.7364968,0.000498924,-6.886608314,107.6107471,-1,-0.689934981,6.04312776,0.389233407,21.10098076,3320,61.60000229,35.29999924,-1.6015625,0.035705042,210.0367825,211,0,0,0,557.5,0.031052887,12.5,70.240468,0,-9.120350336
25,0.015699999,0.032599997,0.076699995,4,-5.949999809,3.200000048,0.800982435,0.076407455,3.076540935,-9.148487904,359.977625,0.066927201,-6.886613419,107.6107464,-1,-0.685952825,6.117149531,0.452372958,21.08529091,3620,61.60000229,35.29999924,-2.578125,0.036183557,209.0870976,210,0,0,0,562.5,0.053222463,5,76.407455,-1,-9.148487904
26,-0.0208,0.028700002,0.082900003,3.769999981,-5.96999979,14.89999962,0.87973686,0.080071695,3.045473438,-9.056701687,1.236401724,0.233846743,-6.886608663,107.6107471,-1,-0.674168247,6.18018906,0.517917555,21.1009903,3306,61.70000076,35.29999924,-2.3828125,0.035444747,205.4197724,206,0,0,0,572.5,-0.122378774,10,80.071695,-4,-9.056701687
27,0.0087,0.034400001,0.073899999,3.910000086,-5.909999847,15.10000038,0.957468469,0.075849921,3.184632891,-9.032401215,2.717739742,0.468140076,-6.886604477,107.6107476,-1,-0.721266152,6.265101515,0.600539415,21.09305191,3586,61.70000076,35.29999924,-2.48046875,0.035483096,202.9520729,203,0,0,0,580,-0.182280764,7.5,75.849921,-3,-9.032401215
28,-0.061700001,0.0274,0.094999999,4.170000076,-5.909999847,15.60000038,1.03724568,0.080566682,3.567891089,-9.22864666,3.755419782,0.448039045,-6.886600251,107.6107482,-1,-0.792929114,6.284474293,0.706265583,21.21471214,1846,61.70000076,35.29999924,-1.89453125,0.067510371,201.6607267,202,0,0,0,590,-0.215679288,10,80.566682,-1,-9.22864666
29,-0.0132,0.0139,0.089699998,4.239999771,-6.179999828,15.89999962,1.124182363,0.080964938,3.647604376,-9.653390688,4.042715119,-0.060002248,-6.886596264,107.6107487,-1,-0.848100421,6.289490188,0.767874804,21.07344055,3520,61.70000076,35.29999924,-2.3828125,0.019168985,202.799648,202,0,0,0,602.5,-0.202125505,12.5,80.964938,0,-9.653390688
30,0.043200001,0.0005,0.092500001,4.510000229,-6.730000019,7.199999809,1.210096289,0.082231365,3.406968798,-10.24420189,3.713379573,-0.307747955,-6.886592534,107.6107492,-1,-0.89094069,6.248474366,0.842964689,21.03382111,3920,61.70000076,35.29999924,-1.796875,0.043202895,204.4572284,204,0,0,0,605,-0.165739134,2.5,82.231365,2,-10.24420189
31,0.060599998,0.0153,0.108900003,4.269999981,-7.480000019,16,1.311351944,0.088275746,3.156122674,-10.92096508,2.997533863,-0.380569689,-6.88658904,107.6107497,-1,-0.891434124,6.259433711,0.928459636,21.21079063,1854,61.70000076,35.29999924,-1.69921875,0.062501598,208.8045014,208,0,0,0,615,-0.116731852,10,88.275746,4,-10.92096508
32,0.077100001,-0.0121,0.093699999,3.579999924,-8.010000229,15.80000019,1.41056205,0.094254225,2.981130746,-11.65447237,2.096042559,-0.300124881,-6.886585606,107.61075,-1,-0.824960194,6.309181569,1.031232964,21.23443985,1614,61.70000076,35.29999924,-2.3828125,0.078043707,213.2697783,213,0,0,0,622.5,-0.07049948,7.5,94.254225,5,-11.65447237
33,0.068499997,-0.034299999,0.0977,4.070000172,-8.640000343,15.30000019,1.516931646,0.095305517,2.986197473,-12.362778,1.003590893,-0.192925344,-6.88658253,107.6107502,-1,-0.7540566,6.322173302,1.087994092,21.23442078,1754,61.70000076,35.29999924,-2.7734375,0.076607699,219.2373208,219,0,0,0,627.5,-0.020668486,5,95.305517,6,-12.362778
34,0.028000001,0.011899999,0.081800006,3.950000048,-9.43999958,3.599999905,1.616141748,0.097237542,3.063208263,-12.94547936,359.9031382,-0.222799048,-6.886579766,107.6107503,-1,-0.639583489,6.346274424,1.1894397,21.23044014,1606,61.70000076,35.29999924,-2.3828125,0.03042384,223.6193035,223,0,0,0,627.5,0.05876882,0,97.237542,4,-12.94547936
35,0.0383,-0.0206,0.095300004,4,-9.909999847,2.200000048,1.719442998,0.097096413,3.091388329,-13.34838133,358.5818102,-0.303180538,-6.886576883,107.6107501,-1,-0.520497453,6.327005543,1.266174774,21.22265053,1754,61.70000076,35.29999924,-1.796875,0.043488505,226.0779311,226,0,0,0,627.5,0.114610702,0,97.096413,3,-13.34838133
36,0.0131,-0.0187,0.0911,3.950000048,-10.25,0.899999976,1.820698668,0.097724035,2.934449845,-13.51984965,357.6723876,-0.407749292,-6.886584007,107.6107513,-1,-0.46608526,6.378073223,1.305651858,21.20264053,1814,61.70000076,35.29999924,-2.28515625,0.022831995,227.5444017,227,0,0,0,627.5,0.144076049,0,97.724035,1,-13.51984965
37,0.138699993,0.016100001,0.065400004,3.769999981,-10.35999966,0.899999976,1.920930762,0.099935293,2.685031741,-13.49576444,357.3656933,-0.083808481,-6.88658196,107.6107508,-1,-0.442086815,6.390554876,1.429627054,21.22253037,1674,61.70000076,35.29999924,-2.08984375,0.139631294,226.7241899,227,0,0,0,627.5,0.13465108,0,99.935293,0,-13.49576444
38,0.071699999,-0.067099996,0.082000002,3.579999924,-10.35000038,0,2.021164436,0.101388924,2.857365806,-13.20589965,357.5761971,0.261681869,-6.886586568,107.6107524,-1,-0.411729774,6.419172743,1.52895259,21.23054123,1700,61.70000076,35.29999924,-2.578125,0.098200302,223.8540976,224,0,0,0,627.5,0.09868829,0,101.388924,-3,-13.20589965
39,0.045900002,-0.017999999,0.073800005,3.859999895,-9.949999809,258.6000061,2.118328948,0.101730041,3.077614886,-12.75790582,358.1975129,0.220465035,-6.88658527,107.6107517,-1,-0.35367404,6.502549774,1.62243056,21.09696007,3254,61.70000076,35.29999924,-2.3828125,0.049303247,218.9055439,219,0,0,0,615,0.05897383,-12.5,101.730041,-5,-12.75790582
40,0.0845,0.0015,0.0678,3.880000114,-9.529999733,359.3999939,2.209356804,0.09708488,3.059404481,-12.27583769,359.224611,0.043512965,-6.886584183,107.6107508,-1,-0.285819365,6.472808767,1.732540405,21.08930206,3466,61.70000076,35.29999924,-2.7734375,0.084513312,212.4532045,213,0,0,0,610,0.016527273,-5,97.08488,-6,-12.27583769
41,0.0517,0.006,0.090900004,3.900000095,-9.180000305,270.7000122,2.307544131,0.098589838,2.894985923,-11.82111187,0.534588068,0.194961506,-6.886583335,107.6107498,-1,-0.249839691,6.469531269,1.859701757,21.22649002,1700,61.70000076,35.29999924,-2.7734375,0.052046998,206.7024824,207,0,0,0,602.5,-0.092457086,-7.5,98.589838,-6,-11.82111187
42,0.081800006,0.024600001,0.074099995,3.720000029,-8.600000381,269.1000061,2.394480784,0.093898304,2.77069714,-11.4421405,2.293095016,0.38913781,-6.886582761,107.6107489,-1,-0.116470968,6.449362072,1.968992164,21.0890007,3374,61.70000076,35.29999924,-2.1875,0.085418974,200.8602026,201,0,0,0,590,-0.214723185,-12.5,93.898304,-6,-11.4421405
43,0.085300006,0.025,0.0779,3.5,-8.56000042,254.3999939,2.488576193,0.093453057,3.054304867,-11.1882455,3.494344106,0.563687046,-6.88658251,107.610748,-1,-0.007048618,6.462256114,2.04420492,21.09717178,3394,61.70000076,35.29999924,-1.796875,0.088888082,196.5994812,197,0,0,0,572.5,-0.211117521,-17.5,93.453057,-4,-11.1882455
44,0.085300006,0.025,0.0779,3.5,-8.56000042,254.3999939,2.568354149,0.087170906,3.264778833,-11.02127885,3.931091232,0.016199521,-6.886582595,107.6107473,-1,0.128650495,6.446414248,2.122942683,21.09312058,3394,61.70000076,35.20000076,-2.1875,0.088888082,193.5403592,194,0,0,0,552.5,-0.202148244,-20,87.170906,-3,-11.02127885
45,0.072900005,0.0121,0.086000003,4.050000191,-7.760000229,249.5,2.674723763,0.088952474,3.390310914,-10.83493622,3.723209356,0.228460837,-6.886583009,107.6107466,-1,0.241722062,6.347744119,2.239428207,21.0851326,3406,61.70000076,35.20000076,-2.1875,0.073897366,189.8762767,190,0,0,0,537.5,-0.165975228,-15,88.952474,-4,-10.83493622
46,0.074199997,-0.024,0.072699994,4.289999962,-7.690000057,247.6000061,2.75450017,0.092085138,3.723278547,-10.43407154,3.043440426,0.083643619,-6.886583645,107.610746,-1,0.458413091,6.243332651,2.34764539,21.10502052,3366,61.70000076,35.20000076,-2.08984375,0.077984867,185.1324582,186,0,0,0,517.5,-0.13727589,-20,92.085138,-4,-10.43407154
47,0.074199997,-0.0308,0.067699999,4.400000095,-7.829999924,245.6000061,2.818936367,0.080047406,3.713572196,-9.84537535,2.18486895,-0.288679365,-6.886584567,107.6107454,-1,0.502248387,6.218380492,2.446060204,21.10889053,3266,61.60000229,35.20000076,-2.7734375,0.080338531,178.9966182,179,0,0,0,500,-0.058228087,-17.5,80.047406,-7,-9.84537535
48,0.078099996,-0.031500001,0.064900003,4.269999981,-6.21999979,253.1999969,2.897689958,0.08062385,3.613476683,-9.184449152,1.281220988,-0.139060899,-6.886585587,107.6107448,-1,0.483461406,6.135106846,2.514845991,21.10891914,3300,61.60000229,35.20000076,-0.234375,0.084213178,170.4759798,171,0,0,0,482.5,-0.025963303,-17.5,80.62385,-8,-9.184449152
49,0.0722,-0.044299997,0.065199994,4.329999924,-6.329999924,257.1000061,2.960081477,0.07615073,3.716646486,-8.566679184,0.293807355,-0.066686762,-6.886586695,107.6107442,-1,0.465714756,6.065426676,2.634256749,21.1089592,3274,61.60000229,35.20000076,-2.28515625,0.084707319,162.9903332,163,0,0,0,465,-0.025880489,-17.5,76.15073,-8,-8.566679184
50,0.074099995,-0.030299999,0.063699998,4.610000134,-5.090000153,254,3.033721108,0.072865225,3.748815483,-8.089890051,359.4473881,-0.159897042,-6.88658782,107.6107436,-1,0.467955522,5.958985373,2.707668755,21.10490036,3286,61.60000229,35.29999924,-2.48046875,0.080055601,155.476369,156,0,0,0,447.5,0.045224518,-17.5,72.865225,-7,-8.089890051
51,0.1065,-0.045200001,0.069400005,4.449999809,-4.730000019,253.6000061,3.101224918,0.07294406,3.692487812,-7.800083346,358.4775834,-0.113350439,-6.886588918,107.610743,-1,0.413358609,5.870449383,2.793339067,21.10105133,3306,61.60000229,35.29999924,-2.3828125,0.115694814,150.1590549,151,0,0,0,427.5,0.112650812,-20,72.94406,-5,-7.800083346
52,0.067000002,-0.042599998,0.061799999,4.380000114,-4.550000191,245,3.167705913,0.06724377,3.665126718,-7.734531525,357.8575523,-0.065754669,-6.886584523,107.6107459,-1,0.367632367,5.825313732,2.867186521,21.10501099,3360,61.60000229,35.29999924,-2.48046875,0.079396222,148.2915739,149,0,0,0,410,0.126484856,-17.5,67.24377,-2,-7.734531525
53,0.065899998,-0.047599997,0.063299999,4.28000021,-4.380000114,251.6000061,3.232141395,0.06482926,3.716605484,-7.851262286,357.5783019,0.144983795,-6.886582091,107.6107477,-1,0.209076366,5.731773192,2.933775716,21.0890522,3360,61.60000229,35.29999924,-2.578125,0.081293108,147.247181,148,0,0,0,392.5,0.125480309,-17.5,64.82926,-1,-7.851262286
54,0.066300005,-0.024799999,0.0623,4.449999809,-4.849999905,246.5,3.300667901,0.065445498,3.91431205,-8.032687246,357.6477591,0.142789444,-6.886582579,107.6107473,-1,0.012617252,5.721232545,3.02927748,21.0970211,3366,61.60000229,35.29999924,-2.578125,0.070786514,154.7768926,154,0,0,0,375,0.110592514,-17.5,65.445498,6,-8.032687246
55,0.057500001,-0.0186,0.058599997,4.400000095,-4.920000076,253.1999969,3.349761624,0.062712133,3.899644894,-8.114952475,357.9493146,0.020228757,-6.88658125,107.6107485,-1,-0.069563427,5.747311774,3.073852946,21.08899117,3306,61.60000229,35.29999924,-2.48046875,0.060433518,158.9280908,158,0,0,0,360,0.080371365,-15,62.712133,4,-8.114952475
56,0.058699999,-0.021399999,0.053300001,4.349999905,-4.699999809,243.1999969,3.408060331,0.054120138,3.919067419,-7.989177374,358.3589511,0.082734563,-6.886581684,107.6107483,-1,-0.163026436,5.728288716,3.133509699,21.10103035,3306,61.60000229,35.29999924,-1.89453125,0.062479195,161.7140681,161,0,0,0,342.5,0.061026659,-17.5,54.120138,3,-7.989177374
57,0.048999999,-0.0175,0.046099998,4.539999962,-4.900000095,243.1000061,3.455107589,0.049531113,3.918472037,-7.574209742,358.9166319,0.070742635,-6.886580529,107.6107489,-1,-0.196561929,5.666323417,3.164316291,21.09700012,3346,61.60000229,35.29999924,-1.6015625,0.052031239,161.0664692,161,0,0,0,327.5,0.029586386,-15,49.531113,0,-7.574209742
58,0.0451,-0.0104,0.0374,4.610000134,-4.5,242.8999939,3.498065372,0.046990916,3.958826896,-6.890617596,359.6261565,0.195640921,-6.886581058,107.6107488,-1,-0.257997763,5.625980343,3.248705703,21.10084152,3286,61.60000229,35.29999924,-2.1875,0.046283582,159.8304314,160,0,0,0,312.5,0.030991221,-15,46.990916,-1,-6.890617596
59,0.038799997,-0.0077,0.030299999,4.71999979,-3.279999971,239.1999969,3.532840748,0.045743842,3.974448628,-5.91715468,0.250164013,0.068274432,-6.886581681,107.6107488,-1,-0.306480049,5.640941216,3.297096104,21.09293175,3334,61.5,35.29999924,-2.67578125,0.039556666,155.1025071,156,0,0,0,297.5,-0.050034422,-15,45.743842,-4,-5.91715468
60,0.035400003,-0.0036,0.025,4.809999943,-2.49000001,236.5,3.551250238,0.036126889,3.945223228,-4.751909975,1.126627835,0.128220549,-6.886582425,107.6107489,-1,-0.339023843,5.626383737,3.340498051,21.08908081,3300,61.5,35.29999924,-2.3828125,0.035582583,149.0743519,150,0,0,0,280,-0.097623996,-17.5,36.126889,-6,-4.751909975
61,0.027799999,-0.0013,0.0178,4.590000153,-1.639999986,237.3999939,3.581933756,0.034448743,4.00508048,-3.489162275,1.885824,0.09439686,-6.886583318,107.6107491,-1,-0.360371121,5.565118529,3.388659778,21.07295036,3354,61.5,35.29999924,-2.1875,0.027830378,141.9131839,142,0,0,0,265,-0.146159291,-15,34.448743,-8,-3.489162275
62,0.0207,-0.0028,0.015600001,4.519999981,-0.49000001,233,3.599321861,0.034930199,4.098883053,-2.272648084,2.496820963,0.140603356,-6.886584351,107.6107495,-1,-0.372836003,5.524467392,3.460600289,21.10093117,3260,61.5,35.29999924,-2.08984375,0.020888514,134.216848,135,0,0,0,250,-0.157787904,-15,34.930199,-7,-2.272648084
63,0.0132,-0.0037,0.0138,4.96999979,0.800000012,234.3999939,3.618753214,0.031167634,4.123158753,-1.202174729,2.894981652,-0.080576109,-6.886585543,107.61075,-1,-0.350396639,5.423577828,3.55080084,21.08892059,3314,61.5,35.29999924,-2.08984375,0.013708756,128.9561019,129,0,0,0,235,-0.157276288,-15,31.167634,-6,-1.202174729
64,0.0051,-0.0045,0.0133,4.639999866,2.190000057,234.8000031,3.638186951,0.028041666,4.081656694,-0.336555301,3.043149782,-0.037280987,-6.886586828,107.6107506,-1,-0.325921115,5.369630306,3.531372796,21.09293175,3314,61.5,35.29999924,-2.87109375,0.00680147,125.2042074,126,0,0,0,220,-0.169321582,-15,28.041666,-3,-0.336555301
65,-0.0008,-0.0107,0.0144,4.909999847,2.960000038,233.5,3.657619734,0.026233941,4.118798882,0.279103628,2.968930966,0.044494192,-6.886588442,107.6107515,-1,-0.322439377,5.32496458,3.605033266,21.08497238,3334,61.29999924,35.20000076,-1.9921875,0.010729864,124.5494478,125,0,0,0,207.5,-0.158130452,-12.5,26.233941,-1,0.279103628
66,-0.0061,-0.0153,0.0153,4.699999809,3.49000001,225.8000031,3.668870468,0.021998253,4.178707814,0.668117925,2.766388095,-0.009905795,-6.886590154,107.6107524,-1,-0.353157719,5.316338322,3.648242787,21.10499001,3294,61.29999924,35.20000076,-2.87109375,0.016471187,126.053017,126,0,0,0,192.5,-0.140727505,-15,21.998253,1,0.668117925
67,-0.0099,-0.0207,0.0145,4.869999886,3.980000019,226.6999969,3.685234089,0.018874835,4.256810495,0.935190612,2.48685707,0.086187266,-6.886592053,107.6107535,-1,-0.298484367,5.312842747,3.694539803,21.10084152,3300,61.29999924,35.20000076,-2.48046875,0.022945588,128.2510975,128,0,0,0,177.5,-0.124765344,-15,18.874835,2,0.935190612
68,-0.016299998,-0.0198,0.0118,4.710000038,4.320000172,225.3999939,3.697508354,0.015080675,4.324212101,1.179069079,2.177463192,-0.001934942,-6.886594102,107.6107547,-1,-0.219997589,5.309016582,3.725464422,21.10890007,3266,61.40000153,35.29999924,-1.796875,0.025646246,130.1108681,130,0,0,0,160,-0.106907032,-17.5,15.080675,2,1.179069079
69,-0.0254,-0.0187,-0.0003,4.650000095,4.889999866,233.1000061,3.696486254,0.008273385,4.313646418,1.541841799,1.896619678,-0.010848804,-6.886596259,107.6107561,-1,-0.120703807,5.300563963,3.716297003,21.10089111,3260,61.40000153,35.29999924,-1.9921875,0.031541243,130.7832103,130,0,0,0,145,-0.094756499,-15,8.273385,0,1.541841799
70,-0.0276,-0.021200001,-0.0092,4.96999979,4.909999847,231.8999939,3.699553986,0.005077853,4.434168576,2.107854529,1.684044684,0.213687706,-6.886598496,107.6107576,-1,-0.061998313,5.355315201,3.733556179,21.10881996,3226,61.40000153,35.29999924,-2.1875,0.034802299,129.2691129,130,0,0,0,127.5,-0.084951051,-17.5,5.077853,0,2.107854529
71,-0.0243,-0.023,-0.019100001,4.900000095,6.070000172,224,3.685234089,0.000430777,4.537980743,2.931761229,1.384260952,0.050611266,-6.886600754,107.6107592,-1,-0.034126822,5.302149315,3.711043711,21.07289124,3374,61.29999924,35.29999924,-2.08984375,0.03345878,127.1374175,128,0,0,0,110,-0.064338088,-17.5,0.430777,-2,2.931761229
72,-0.031200001,-0.0306,-0.025899999,5.059999943,7.599999905,228,3.668870468,-0.007125286,4.47340955,3.994906452,1.189964806,0.013190832,-6.886603042,107.6107609,-1,0.022897619,5.347822564,3.747674627,21.09293175,3334,61.29999924,35.29999924,-2.578125,0.043701259,123.0488122,124,0,0,0,95,-0.052283231,-15,-7.125286,-4,3.994906452
73,-0.0272,-0.031600002,-0.0341,5.050000191,8.489999771,222.1000061,3.648414631,-0.009606801,4.523759482,5.281137148,0.934944708,0.26862075,-6.886605304,107.6107628,-1,0.072488007,5.354804299,3.785253878,21.10484123,3286,61.29999924,35.29999924,-1.69921875,0.041694126,117.1418732,118,0,0,0,77.5,-0.036623776,-17.5,-9.606801,-6,5.281137148
74,-0.031600002,-0.035500001,-0.041900001,5.079999924,9.899999619,221.3000031,3.621822376,-0.011803526,4.711186525,6.69517724,0.63412573,0.11524962,-6.886607492,107.6107648,-1,0.075739157,5.388538083,3.77001983,21.088871,3320,61.29999924,35.29999924,-2.3828125,0.047526942,110.3186411,111,0,0,0,62.5,-0.025887279,-15,-11.803526,-7,6.69517724
75,-0.031500001,-0.038699999,-0.043499999,5.039999962,11.38000011,1.600000024,3.591138859,-0.016356934,4.713363044,8.117555243,0.249841523,-0.059002839,-6.886609587,107.6107669,-1,0.117702644,5.414601752,3.767858779,21.2304306,1620,61.29999924,35.29999924,-2.28515625,0.049899298,101.0760919,102,0,0,0,55,-0.012620255,-7.5,-16.356934,-9,8.117555243
76,-0.0266,-0.043099999,-0.043200001,4.820000172,12.71000004,1.5,3.556364079,-0.020915693,4.594054287,9.340833896,359.978281,0.054813576,-6.886611566,107.6107691,-1,0.064604377,5.444144532,3.797764391,21.23044014,1614,61.29999924,35.29999924,-2.1875,0.050647507,93.99674256,94,0,0,0,55,0.020810608,0,-20.915693,-8,9.340833896
77,-0.028000001,-0.038599998,-0.038200002,4.940000057,13.89000034,1.399999976,3.52363493,-0.024512883,4.63934219,10.24077396,359.4640076,0.164236439,-6.8866134,107.6107715,-1,0.034754855,5.441750916,3.771856743,21.23048019,1626,61.20000076,35.20000076,-1.796875,0.047686055,88.4657982,89,0,0,0,55,0.043142986,0,-24.512883,-5,10.24077396
78,-0.0239,-0.036200002,-0.0337,4.869999886,14.10999966,1.200000048,3.499088187,-0.023258613,4.616406313,10.59756158,358.9899707,0.007714266,-6.886615065,107.610774,-1,-0.033438424,5.411875428,3.786176527,21.22646141,1640,61.20000076,35.20000076,-0.625,0.043377992,87.81841928,88,0,0,0,55,0.070346393,0,-23.258613,-1,10.59756158
79,-0.022600001,-0.037599999,-0.0285,4.840000153,14.11999989,0.300000012,3.474541326,-0.023051271,4.531348682,10.54767334,358.5358608,0.103707426,-6.88660455,107.6107559,-1,-0.152771942,5.332444793,3.808015588,21.226511,1666,61.20000076,35.20000076,-2.48046875,0.043869351,89.79601575,89,0,0,0,55,0.087131217,0,-23.051271,1,10.54767334
80,-0.024700001,-0.034200002,-0.023600001,4.800000191,13.80000019,359.7000122,3.442834992,-0.029923292,4.644163333,10.18253842,358.2317358,0.285275966,-6.886600095,107.6107454,-1,-0.266435661,5.277442884,3.754841391,21.22654152,1686,61.20000076,35.29999924,-2.28515625,0.042186848,94.37207744,94,0,0,0,55,0.104081407,0,-29.923292,5,10.18253842
81,-0.0176,-0.033799998,-0.021799998,5.110000134,13.17000008,0.300000012,3.420334477,-0.031197438,4.820836767,9.613701682,357.9999656,0.166375146,-6.886600457,107.6107471,-1,-0.358606653,5.154476592,3.731647917,21.23054123,1686,61.20000076,35.29999924,-2.48046875,0.038107741,101.2517687,101,0,0,0,55,0.107983425,0,-31.197438,7,9.613701682
82,-0.0184,-0.0284,-0.0221,5.110000134,12.72000027,359.3999939,3.395786901,-0.030923599,4.796570891,9.010565983,357.8755111,-0.073234129,-6.886600532,107.6107489,-1,-0.456140605,5.05378423,3.673986059,21.22650146,1666,61.20000076,35.29999924,-1.89453125,0.033839622,109.1920337,109,0,0,0,55,0.110734656,0,-30.923599,8,9.010565983
83,-0.0153,-0.025899999,-0.027000001,5.190000057,12.34000015,359.6000061,3.367148895,-0.03157305,4.696029909,8.521057713,357.8550649,-0.029876433,-6.88660033,107.6107509,-1,-0.559377325,4.979561959,3.623630746,21.22649002,1646,61.20000076,35.20000076,-2.1875,0.030081555,116.8045083,116,0,0,0,55,0.104513295,0,-31.57305,7,8.521057713
84,-0.014,-0.022299999,-0.0328,5.130000114,11.97000027,0.100000001,3.341579337,-0.030352142,4.649391078,8.263955166,357.9473738,-0.034076664,-6.886599871,107.6107529,-1,-0.593527492,4.909324547,3.625708773,21.21072006,1806,61.20000076,35.20000076,-1.89453125,0.0263304,121.9427447,121,0,0,0,55,0.097963922,0,-30.352142,5,8.263955166
85,-0.010899999,0.065300003,-0.056200001,4.960000038,11.98999977,359.6000061,3.311917801,-0.028549219,4.61448264,8.310793027,358.1146344,-0.048794308,-6.88660434,107.6107425,-1,-0.683363173,4.882916784,3.569074995,21.23046112,1660,61.20000076,35.20000076,-1.89453125,0.066203477,124.2322442,124,0,0,0,55,0.085390002,0,-28.549219,3,8.310793027
86,-0.012,-0.0148,-0.045400001,4.960000038,12.15999985,0.400000006,3.271006365,-0.033670038,4.625836755,8.644557208,358.4118436,0.00099046,-6.886603643,107.6107441,-1,-0.759814126,4.830687747,3.538237025,21.23048973,1660,61.10000229,35.20000076,-2.7734375,0.019053609,123.7339829,124,0,0,0,55,0.064286314,0,-33.670038,0,8.644557208
87,-0.0095,-0.012800001,-0.050299998,4.900000095,12.64999962,1.200000048,3.224981089,-0.036620632,4.643782783,9.219850894,358.8598033,-0.135826165,-6.886602733,107.6107458,-1,-0.809416499,4.85813102,3.508503109,21.23447037,1640,61.10000229,35.20000076,-1.9921875,0.015940201,122.621992,123,0,0,0,55,0.038885619,0,-36.620632,-1,9.219850894
88,-0.0075,-0.010100001,-0.053400002,4.929999828,13.18999958,2.400000095,3.181002159,-0.039824054,4.54091238,9.849591715,359.3585506,-0.251781453,-6.886601635,107.6107475,-1,-0.934869161,4.866448224,3.457324199,21.23445129,1620,61.10000229,35.20000076,-2.578125,0.012580143,119.6519301,120,0,0,0,55,0.023760011,0,-39.824054,-3,9.849591715
89,-0.0032,-0.0557,-0.065099999,4.849999905,13.94999981,3.099999905,3.127816577,-0.041568317,4.480710028,10.50802961,360.0074744,-0.085927321,-6.886600346,107.6107492,-1,-1.116336889,4.844065126,3.464198809,21.23046112,1634,61.20000076,35.20000076,-2.08984375,0.055791846,116.9249531,117,0,0,0,55,0.026560279,0,-41.568317,-3,10.50802961
90,-0.0017,-0.0027,-0.054200001,4.869999886,14.39999962,3.700000048,3.081791182,-0.044560246,4.471731888,11.02743938,0.482841187,-0.133540802,-6.886598849,107.610751,-1,-1.236317912,4.798281417,3.411812764,21.21844101,1646,61.20000076,35.20000076,-1.9921875,0.003190611,113.3086096,114,0,0,0,55,-0.053752646,0,-44.560246,-3,11.02743938
91,-0.0001,-0.0063,-0.050700001,4.889999866,14.89000034,3.900000095,3.029629965,-0.045401983,4.436491591,11.36950048,1.060640261,-0.147997075,-6.886597156,107.6107527,-1,-1.3081805,4.788932906,3.36619509,21.22656059,1700,61.20000076,35.20000076,-1.89453125,0.006300794,112.208461,113,0,0,0,55,-0.076959923,0,-45.401983,-1,11.36950048
92,0.004,-0.0064,-0.0462,4.670000076,14.96000004,4.699999809,2.987695832,-0.045312654,4.435572892,11.43364713,1.659666265,-0.104812122,-6.886608337,107.6107434,-1,-1.417767388,4.770630036,3.337567817,21.21453094,1706,61.10000229,35.20000076,-1.69921875,0.007547185,113.0605654,113,0,0,0,55,-0.108025134,0,-45.312654,0,11.43364713
93,0.0052,-0.0087,-0.0416,4.659999847,15.01000023,4.099999905,2.942693372,-0.041431636,4.45870609,11.2663516,2.120760525,-0.113764248,-6.886615947,107.6107376,-1,-1.467802823,4.778194592,3.285945135,21.22253037,1686,61.10000229,35.20000076,-3.06640625,0.010135581,115.1503954,115,0,0,0,55,-0.130148202,0,-41.431636,2,11.2663516
94,0.0052,-0.0087,-0.0416,4.659999847,15.01000023,4.099999905,2.89564528,-0.047994033,4.429873625,10.90756258,2.517090434,-0.034703141,-6.886621585,107.6107336,-1,-1.558890901,4.83850698,3.292889229,21.23051071,1700,61.10000229,35.20000076,-1.69921875,0.010135581,118.5267071,118,0,0,0,55,-0.145509988,0,-47.994033,3,10.90756258
95,0.007900001,-0.0143,-0.0363,4.610000134,14.18000031,6.099999905,2.853711028,-0.04782493,4.393211501,10.49878709,2.688272601,-0.119583371,-6.886620249,107.6107346,-1,-1.581584676,4.820943818,3.206220014,21.23051071,1660,61.10000229,35.20000076,-2.28515625,0.016337075,123.2108066,123,0,0,0,55,-0.138456285,0,-47.82493,5,10.49878709
96,0.0083,-0.017200001,-0.0359,4.570000172,13.73999977,5.400000095,2.817913671,-0.042488381,4.285713859,10.08412954,2.72356052,-0.140980688,-6.886618754,107.6107356,-1,-1.644310429,4.800201787,3.136798949,21.22254181,1680,61.10000229,35.20000076,-1.69921875,0.019097906,129.278933,129,0,0,0,55,-0.145930767,0,-42.488381,6,10.08412954
97,0.0099,-0.0188,-0.0385,4.550000191,13.47000027,4.300000191,2.770866294,-0.04435372,4.212733429,9.790983739,2.622409208,0.011036906,-6.886624883,107.6107323,-1,-1.744889871,4.788319779,3.083393052,21.21051025,1700,61.10000229,35.20000076,-1.89453125,0.021247353,133.6269465,133,0,0,0,55,-0.13734819,0,-44.35372,4,9.790983739
98,0.0099,-0.0188,-0.0385,4.550000191,13.47000027,4.300000191,2.729954977,-0.045763366,4.216132318,9.687554684,2.459055845,0.047774846,-6.886629873,107.6107299,-1,-1.711442375,4.718341427,3.051438941,21.23442078,1620,61.20000076,35.29999924,-1.6015625,0.021247353,137.0465654,137,0,0,0,55,-0.125039443,0,-45.763366,4,9.687554684
99,0.011899999,-0.026700001,-0.044299997,4.550000191,13.30000019,5.300000191,2.679837723,-0.04459168,4.245914234,9.786586283,2.278483597,-0.005657361,-6.886634084,107.6107281,-1,-1.762261355,4.728173088,2.972040688,21.22240067,1626,61.20000076,35.29999924,-1.40625,0.029231833,138.0785571,138,0,0,0,55,-0.112907343,0,-44.59168,1,9.786586283
100,0.011899999,-0.026700001,-0.044299997,4.550000191,13.30000019,5.300000191,2.632790465,-0.047162477,4.199985249,10.02397374,2.239691509,0.025898167,-6.886637757,107.6107269,-1,-1.770422207,4.711654507,2.966000271,21.23046112,1654,61.20000076,35.29999924,-1.89453125,0.029231833,138.1323585,138,0,0,0,55,-0.108189695,0,-47.162477,0,10.02397374
101,0.011899999,-0.026700001,-0.044299997,4.550000191,13.30000019,5.300000191,2.58165123,-0.046483286,4.193480038,10.39746707,2.15487455,0.061017125,-6.886636147,107.6107274,-1,-1.863945737,4.661590875,2.965442932,21.22648048,1660,61.10000229,35.20000076,-2.67578125,0.029231833,137.4686482,138,0,0,0,55,-0.103060454,0,-46.483286,0,10.39746707
102,0.011899999,-0.026700001,-0.044299997,4.550000191,13.30000019,5.300000191,2.530511994,-0.047727566,4.204292586,10.84445123,2.086060513,0.060223073,-6.886634282,107.6107279,-1,-1.870379585,4.590918329,2.895767422,21.23044014,1626,61.10000229,35.20000076,-1.89453125,0.029231833,136.1256551,137,0,0,0,55,-0.102556214,0,-47.727566,-1,10.84445123
103,0.0526,-0.068099998,-0.038200002,4.480000019,14.77000046,5.699999809,2.470166881,-0.052108012,4.185069946,11.27359271,2.012799476,0.077045206,-6.886632172,107.6107284,-1,-1.997753054,4.471870247,2.81252884,21.23447037,1640,61.10000229,35.20000076,-2.578125,0.086048647,135.6264496,136,0,0,0,55,-0.09606304,0,-52.108012,-1,11.27359271
104,0.0144,0.064499997,-0.080499999,4.559999943,15.14999962,4.300000191,2.419027646,-0.052372757,4.213584646,11.6133295,1.970169864,0.138551191,-6.8866298,107.6107288,-1,-2.149506694,4.424412171,2.774540903,21.2344799,1634,61.10000229,35.20000076,-2.28515625,0.066087893,135.4877041,136,0,0,0,55,-0.09751334,0,-52.372757,0,11.6133295
105,0.134399995,-0.056900002,-0.0195,4.590000153,15.35000038,3.900000095,2.359706123,-0.051943164,4.282903092,11.84438131,1.95001806,0.184837448,-6.886635951,107.6107279,-1,-2.405718511,4.371605596,2.730412821,21.23046112,1660,61.10000229,35.20000076,-2.08984375,0.145948515,136.0731752,136,0,0,0,55,-0.111110806,0,-51.943164,0,11.84438131
106,0.128899992,0.0091,-0.034700003,4.579999924,15.55000019,5.099999905,2.307544131,-0.051819969,4.339505817,11.96938079,1.890606277,0.033878942,-6.886641354,107.6107273,-1,-2.466308414,4.322422933,2.671964147,21.23445129,1634,61.10000229,35.20000076,-1.796875,0.12922081,136.3699308,136,0,0,0,55,-0.093310252,0,-51.819969,0,11.96938079
107,0.065899998,-0.0515,-0.0309,4.630000114,15.65999985,3.5,2.253335733,-0.053620487,4.350103106,12.0051114,1.871818,0.025077293,-6.886645906,107.6107269,-1,-2.474423917,4.412316415,2.627080956,21.22643089,1646,61.10000229,35.20000076,-2.3828125,0.083636474,136.6567544,136,0,0,0,55,-0.092131875,0,-53.620487,0,12.0051114
108,0.104900002,-0.0132,-0.0394,4.659999847,15.57999992,4.800000191,2.197082598,-0.054957125,4.32349414,11.9545176,1.750299304,0.04077593,-6.886649812,107.6107266,-1,-2.466553668,4.403729071,2.6047771,21.21852112,1686,61.10000229,35.20000076,-2.1875,0.105727246,138.1462406,138,0,0,0,55,-0.081507541,0,-54.957125,2,11.9545176
109,0.0779,0.0141,-0.070599996,4.639999866,15.56999969,3.299999952,2.139807422,-0.057416562,4.295685868,11.87650546,1.578620202,0.127033402,-6.886653237,107.6107263,-1,-2.384338699,4.420454211,2.530115671,21.226511,1660,61.10000229,35.20000076,-1.50390625,0.079165775,140.4842048,140,0,0,0,55,-0.069694318,0,-57.416562,2,11.87650546
110,0.052200001,-0.029899999,-0.0451,4.590000153,15.43999958,3.400000095,2.084576268,-0.05692175,4.318414173,11.81268341,1.411834103,0.119621811,-6.886656286,107.6107261,-1,-2.37046511,4.391612627,2.455178551,21.22647095,1654,61.20000076,35.20000076,-1.796875,0.060156879,142.1752503,142,0,0,0,55,-0.063031211,0,-56.92175,2,11.81268341
111,0.011899999,-0.101199999,-0.049800001,4.639999866,15.48999977,3.700000048,2.034461458,-0.05397895,4.34401432,11.79687375,1.191165073,0.093524835,-6.886659054,107.610726,-1,-2.29397291,4.370937705,2.424915075,21.16504097,1666,61.20000076,35.20000076,-2.7734375,0.101897252,144.2580305,144,0,0,0,55,-0.047928032,0,-53.97895,2,11.79687375
112,0.0383,0.0513,-0.0638,4.599999905,15.51000023,2,1.973094363,-0.058933835,4.336359347,11.8546634,0.933506651,0.152443475,-6.88666159,107.6107258,-1,-2.260115642,4.365129912,2.387462778,21.23443031,1620,61.20000076,35.20000076,-2.1875,0.064020153,145.8401679,145,0,0,0,55,-0.037658401,0,-58.933835,1,11.8546634
113,0.0148,-0.042300001,-0.054400001,4.639999866,15.61999989,1.399999976,1.91274928,-0.060187496,4.39561054,12.00726913,0.687669862,0.089962199,-6.886663928,107.6107257,-1,-2.277970647,4.351788202,2.31627716,21.23842049,1620,61,35.20000076,-2.3828125,0.044814396,145.2081558,145,0,0,0,55,-0.026514661,0,-60.187496,0,12.00726913
114,0.059299998,-0.035400003,-0.061299998,4.710000038,15.82999992,1.100000024,1.844221909,-0.063019834,4.442239121,12.21795323,0.48704666,0.143974509,-6.886661219,107.6107259,-1,-2.397684112,4.256141621,2.243027427,21.23841095,1606,61,35.20000076,-1.40625,0.069062653,145.0034971,145,0,0,0,55,-0.016617507,0,-63.019834,0,12.21795323
115,0.059099998,-0.0052,-0.051099997,4.730000019,16.02000046,11.89999962,1.785923977,-0.061360475,4.445925023,12.48182195,0.342455174,0.092392838,-6.886663749,107.6107258,-1,-2.501608365,4.309967877,2.2137566,21.08503151,3320,61,35.20000076,-2.3828125,0.059328322,144.6816983,145,0,0,0,57.5,-0.012709714,2.5,-61.360475,0,12.48182195
116,0.076699995,0.038799997,-0.057599999,4.679999828,16.43000031,11.80000019,1.720465769,-0.06073533,4.414121199,12.724233,0.17862866,0.036367386,-6.886666403,107.6107257,-1,-2.612627439,4.272454472,2.141999611,21.11283112,3146,61.10000229,35.20000076,-1.9921875,0.085955389,144.6261849,145,0,0,0,62.5,-0.002417295,5,-60.73533,0,12.724233
117,0.252600014,-0.023399999,-0.0188,4.559999943,16.54999924,11.60000038,1.657053132,-0.062543958,4.373229898,12.94542384,0.04510223,0.021171675,-6.886668654,107.6107257,-1,-2.700699322,4.250634219,2.075400775,21.11674118,3226,61.10000229,35.20000076,-2.1875,0.253681547,144.405264,145,0,0,0,67.5,-0.006665318,5,-62.543958,0,12.94542384
118,0.030999999,-0.040400002,-0.059799999,4.659999847,16.77000046,0.400000006,1.588526566,-0.067098655,4.367930826,13.02270734,360.1183982,0.160432843,-6.886670944,107.6107257,-1,-2.755378533,4.25919826,2.039883317,21.22650146,1654,61.10000229,35.20000076,-1.50390625,0.050923081,145.4287473,145,0,0,0,77.5,-0.002482584,10,-67.098655,0,13.02270734
119,0.134000003,0.028299998,-0.041900001,4.519999981,16.93000031,11.30000019,1.529205061,-0.063960597,4.407018043,12.96565402,360.0720934,0.13302701,-6.886667794,107.6107257,-1,-2.766811793,4.338311639,1.938849926,21.10099983,3326,61.10000229,35.20000076,-2.28515625,0.136955799,146.0763996,146,0,0,0,92.5,-0.001346995,15,-63.960597,1,12.96565402
120,0.0284,0.0127,-0.064900003,4.670000076,16.62000084,11.39999962,1.468860772,-0.061073363,4.452234621,12.74734783,359.9968412,0.081642326,-6.886664662,107.6107258,-1,-2.695897889,4.359529107,1.873406527,21.10505104,3246,61.10000229,35.20000076,-2.28515625,0.031110288,149.1901263,149,0,0,0,100,0.009451708,7.5,-61.073363,3,12.74734783
121,0.059500001,-0.023,-0.0385,4.739999771,16.23999977,11.39999962,1.415675972,-0.055765674,4.48322225,12.34982822,359.8960312,0.127610605,-6.88666112,107.6107258,-1,-2.754947443,4.41740089,1.800813199,21.10881042,3286,61.10000229,35.20000076,-2.578125,0.063790675,153.6499833,153,0,0,0,117.5,0.011101352,17.5,-55.765674,4,12.34982822
122,0.110800005,0.029999999,-0.037299998,4.820000172,15.48999977,359.2000122,1.365559537,-0.05319744,4.437236032,11.83128376,359.714666,-0.046808358,-6.886657314,107.6107259,-1,-2.691932616,4.531249977,1.751926238,21.23039055,1600,61.10000229,35.20000076,-2.578125,0.114789552,158.1948257,158,0,0,0,127.5,0.020600131,10,-53.19744,5,11.83128376
123,0.091300003,-0.0231,-0.039999999,4.889999866,15.32999992,11.30000019,1.316465874,-0.054186951,4.307255671,11.29317711,359.5548132,-0.045374395,-6.886653222,107.610726,-1,-2.68417662,4.512839633,1.670281906,21.10885048,3254,61.10000229,35.20000076,-1.89453125,0.094176964,164.6469945,164,0,0,0,145,0.026554976,17.5,-54.186951,6,11.29317711
124,0.046999998,0.025600001,-0.032599997,4.610000134,14.68000031,11,1.264303852,-0.05547636,4.242938178,10.73164384,359.3554345,0.011994639,-6.886648732,107.6107261,-1,-2.71596011,4.551657441,1.628784187,21.10090065,3214,61.10000229,35.20000076,-1.69921875,0.053519715,170.8865244,170,0,0,0,162.5,0.041985366,17.5,-55.47636,6,10.73164384
125,0.052200001,-0.0108,-0.022799999,4.630000114,14.14999962,11,1.230551977,-0.047693234,4.200937689,10.19829682,359.1149172,0.019294477,-6.886644489,107.6107262,-1,-2.69208481,4.51246874,1.556550934,21.10093117,3240,61,35.20000076,-2.28515625,0.053305535,177.0253137,177,0,0,0,182.5,0.053047683,20,-47.693234,7,10.19829682
126,0.047200002,-0.0077,-0.028899999,4.5,13.60999966,10.80000019,1.189640571,-0.041385721,4.140935648,9.810223891,358.8472567,0.072085922,-6.886639532,107.6107262,-1,-2.618444072,4.51163979,1.528494006,21.10873032,3226,61,35.20000076,-2.7734375,0.04782395,179.7244663,180,0,0,0,190,0.069459386,7.5,-41.385721,3,9.810223891
127,0.038599998,-0.031600002,-0.0184,4.539999962,13.31000042,356.5,1.151797552,-0.038864098,4.156624009,9.527150043,358.5414644,0.165148852,-6.886634495,107.6107263,-1,-2.60101199,4.524190235,1.480295698,21.22649002,1680,61,35.20000076,-1.6015625,0.049885068,179.2117372,180,0,0,0,182.5,0.074185543,-7.5,-38.864098,0,9.527150043
128,0.034599997,0.0099,-0.031100001,4.550000191,13.10999966,227.5,1.113954533,-0.039312154,4.223708704,9.525981489,358.3172932,0.112566424,-6.886643388,107.6107262,-1,-2.646937997,4.528668726,1.427798127,21.10101128,3374,61.10000229,35.20000076,-1.9921875,0.035988468,176.7193833,177,0,0,0,170,0.089810006,-12.5,-39.312154,-3,9.525981489
129,0.0535,-0.027100001,-0.0286,4.519999981,13.06999969,248.1999969,1.081225414,-0.035009105,4.22249872,9.646311877,358.1723377,0.053177573,-6.88664969,107.6107262,-1,-2.694843918,4.517569722,1.367631828,21.09709167,3294,61.10000229,35.20000076,-1.69921875,0.059972161,172.1824797,173,0,0,0,165,0.095499709,-5,-35.009105,-4,9.646311877
130,0.039999999,-0.0088,-0.027100001,4.78000021,13.02999973,237.5,1.04235961,-0.034128994,4.236550847,9.931221415,358.0690949,0.08041002,-6.886645523,107.6107262,-1,-2.633951529,4.472407974,1.343593665,21.10898018,3306,61.10000229,35.20000076,-2.08984375,0.040956561,165.9235458,166,0,0,0,147.5,0.102095552,-17.5,-34.128994,-7,9.931221415
131,0.055,-0.010100001,-0.0253,4.670000076,13.71000004,258.2999878,1.003493805,-0.037342206,4.286585577,10.3346453,358.0016331,0.024785268,-6.886641186,107.6107262,-1,-2.685453111,4.421829187,1.293140063,21.10894012,3166,61.10000229,35.20000076,-2.28515625,0.055919674,157.2713802,158,0,0,0,142.5,0.100478709,-5,-37.342206,-8,10.3346453
132,0.039999999,-0.0045,-0.0186,4.769999981,14.38000011,355.7000122,0.966673572,-0.034833536,4.293221482,10.70945753,358.0176511,-0.052558811,-6.886636917,107.6107262,-1,-2.704262716,4.382227589,1.277625921,21.21448135,1666,61.10000229,35.20000076,-1.9921875,0.040252328,149.5934595,150,0,0,0,132.5,0.095071919,-10,-34.833536,-8,10.70945753
133,0.061900001,0.0103,-0.030299999,4.889999866,13.93999958,233.8999939,0.92985328,-0.033823609,4.257566468,11.03498203,358.0278743,0.031685419,-6.886632282,107.6107261,-1,-2.789643546,4.339126159,1.219211359,21.10098076,3314,61.10000229,35.20000076,-1.9921875,0.062751097,142.7669394,143,0,0,0,120,0.095402665,-12.5,-33.823609,-7,11.03498203
134,0.049900003,0.028200001,-0.032900002,4.559999943,14.64999962,297.7999878,0.894055862,-0.034149665,4.310047218,11.19133261,358.1099055,0.134935054,-6.886640432,107.6107263,-1,-2.801242397,4.326424399,1.210443939,21.13248062,2954,61.10000229,35.20000076,-2.08984375,0.057317103,136.8948784,137,0,0,0,115,0.090899289,-5,-34.149665,-6,11.19133261
135,0.0274,-0.016299998,-0.0239,4.75,14.69999981,299.1000061,0.854167242,-0.036649521,4.333845417,11.15673296,358.1523835,0.037857803,-6.886636179,107.6107262,-1,-2.745897887,4.360651861,1.171643793,21.11282158,3240,61.10000229,35.20000076,-2.48046875,0.031881812,131.8654396,132,0,0,0,110,0.091828667,-5,-36.649521,-5,11.15673296
136,0.0147,0.0104,-0.0288,4.489999771,14.65999985,316.8999939,0.820415337,-0.035551865,4.327145874,10.9026321,358.2293577,0.007743857,-6.886642673,107.6107264,-1,-2.729008395,4.242364014,1.154831876,21.08522224,3512,61.10000229,35.20000076,-1.796875,0.018006943,129.9536785,130,0,0,0,105,0.084718935,-5,-35.551865,-2,10.9026321
137,0.025600001,0.035599999,-0.032400001,4.639999866,14.03999996,333.7999878,0.788709064,-0.0354283,4.356139357,10.48975386,358.3397076,0.052034938,-6.886639112,107.6107263,-1,-2.740754436,4.192613089,1.099327216,21.08528137,3340,61.10000229,35.20000076,-0.8203125,0.043848831,129.766087,130,0,0,0,102.5,0.078585051,-2.5,-35.4283,0,10.48975386
138,0.043000001,0.056299999,-0.031500001,4.710000038,13.77999973,355,0.745752056,-0.041606512,4.409501649,9.922382938,358.5490634,-0.008075719,-6.886635503,107.6107262,-1,-2.811998742,4.13192528,1.057954651,21.22251129,1666,61.10000229,35.20000076,-2.87109375,0.070842713,130.3057092,130,0,0,0,100,0.063784719,-2.5,-41.606512,0,9.922382938
139,0.057,-0.0031,-0.0317,4.710000038,13.17000008,355.5,0.71200021,-0.043524064,4.410226871,9.336668784,358.7194674,0.027717768,-6.886631877,107.610726,-1,-2.837747715,4.157369703,1.046336542,21.23046112,1634,61.10000229,35.20000076,-1.89453125,0.057084236,130.6731556,130,0,0,0,100,0.059489086,0,-43.524064,0,9.336668784
140,0.093000002,-0.037799999,-0.02,4.769999981,12.60000038,355.2000122,0.681316633,-0.040662184,4.443245803,8.744384073,358.9860892,0.036215885,-6.88662822,107.6107258,-1,-2.814305376,4.233566904,0.968843417,21.21449089,1706,61,35.20000076,-1.89453125,0.100388447,130.3494074,130,0,0,0,100,0.03244422,0,-40.662184,0,8.744384073
141,0.0438,-0.0294,-0.021600001,4.869999886,12.13000011,355.5,0.635291357,-0.045568276,4.45127919,8.233841817,359.2031807,-0.035030289,-6.886624496,107.6107256,-1,-2.763904912,4.30538465,0.932983664,21.22245216,1620,61,35.20000076,-2.7734375,0.052752251,130.3759323,130,0,0,0,100,0.032228276,0,-45.568276,0,8.233841817
142,0.068900004,-0.0144,-0.032299999,4.889999866,11.57999992,355.3999939,0.59949388,-0.04461953,4.407557048,7.885148666,359.3663683,-0.066617324,-6.88662072,107.6107254,-1,-2.775632396,4.298801021,0.86144271,21.21441269,1680,61,35.20000076,-2.3828125,0.07038871,129.7560963,130,0,0,0,100,0.023719011,0,-44.61953,0,7.885148666
143,0.12910001,-0.022299999,-0.0438,4.849999905,11.38000011,359.7999878,0.558582504,-0.043653887,4.329175896,7.73421376,359.5293373,-0.062991217,-6.886629904,107.610726,-1,-2.703864,4.225895066,0.839166877,21.09683037,3314,61,35.20000076,-0.91796875,0.131011841,128.775468,129,0,0,0,102.5,0.015805639,2.5,-43.653887,-1,7.73421376
144,0.0517,0.071800001,-0.0469,4.820000172,11.18999958,357.8999939,0.511534472,-0.04563747,4.294598036,7.690476669,359.71483,0.016270602,-6.886636284,107.6107266,-1,-2.69847605,4.222376778,0.786984959,21.12450027,2974,61,35.20000076,-1.40625,0.088476721,126.451739,127,0,0,0,107.5,0.00876971,5,-45.63747,-2,7.690476669
145,0.039799999,0.0007,-0.039700001,4.690000057,11.02999973,357.2999878,0.46448638,-0.047043316,4.294944844,7.747945987,359.8935164,0.017704206,-6.886640946,107.610727,-1,-2.738402394,4.213768147,0.695895853,21.12864113,3094,61,35.20000076,-2.1875,0.039806155,123.5122338,124,0,0,0,112.5,9.90E-05,5,-47.043316,-3,7.747945987
146,0.049900003,0.0298,-0.040200002,4.75,11.30000019,357,0.411301513,-0.048041467,4.331741933,7.780486991,360.0668998,0.059101253,-6.886644551,107.6107274,-1,-2.736561619,4.215854833,0.631310689,21.12469101,3014,61,35.20000076,-2.578125,0.058120997,119.7243628,120,0,0,0,117.5,-0.011017818,5,-48.041467,-4,7.780486991
147,0.030299999,0.0152,-0.045599997,4.760000229,11.18999958,355.7000122,0.365276237,-0.048778452,4.31196235,7.786831184,0.060575547,-0.024992558,-6.886647247,107.6107277,-1,-2.727700076,4.283436078,0.640143673,21.10461044,3040,61,35.20000076,-2.08984375,0.033898819,115.600042,116,0,0,0,122.5,-0.01523398,5,-48.778452,-4,7.786831184
148,0.060900003,-0.0117,-0.032499999,4.679999828,11.28999996,10.89999962,0.325387616,-0.043950085,4.219585448,7.551328107,0.250998146,-0.087127254,-6.886649578,107.610728,-1,-2.743683166,4.304791723,0.580179066,21.22244072,1646,61,35.20000076,-2.08984375,0.062013711,114.5299499,115,0,0,0,130,-0.014284418,7.5,-43.950085,-1,7.551328107
149,0.0239,-0.0264,-0.0309,4.659999847,10.89999962,10.89999962,0.280385156,-0.045254603,4.161339229,7.130491221,0.538275731,-0.055972931,-6.886647793,107.6107278,-1,-2.716510991,4.402193341,0.521596601,21.10090065,3260,61,35.10000229,-2.7734375,0.035611375,114.6305586,114,0,0,0,142.5,-0.035710495,12.5,-45.254603,-1,7.130491221
150,0.030999999,0.036599997,-0.043499999,4.590000153,10.46000004,355.8999939,0.23947372,-0.04591943,4.205165158,6.518078837,0.774547754,0.022446653,-6.886646023,107.6107275,-1,-2.743776095,4.490668435,0.500656132,21.23441124,1634,61,35.10000229,-1.89453125,0.047964151,114.6305586,114,0,0,0,142.5,0,0,-45.91943,0,6.518078837
151,0.0003,0.0045,-0.032900002,4.710000038,9.779999733,355.8999939,0.199585099,-0.045874178,4.221613335,5.725037615,1.030747191,0.024870041,-6.886644258,107.6107273,-1,-2.781281885,4.501763383,0.436916237,21.2343998,1594,61,35.10000229,-2.3828125,0.004509989,114.6305586,114,0,0,0,142.5,0,0,-45.874178,0,5.725037615
152,0.021399999,-0.031100001,-0.0229,4.659999847,8.909999847,355.8999939,0.168901582,-0.04218334,4.279130488,4.928370712,1.32215564,-0.030167274,-6.886642218,107.610727,-1,-2.809178941,4.524659681,0.386987601,21.23442078,1600,61.10000229,35.20000076,-2.578125,0.037751424,114.6305586,114,0,0,0,142.5,0,0,-42.18334,0,4.928370712
153,0.021200001,-0.0295,-0.0307,4.78000021,8.180000305,355.8999939,0.134126921,-0.039679255,4.288379411,4.134773828,1.608114144,-0.042527635,-6.886640222,107.6107267,-1,-2.800922427,4.527316991,0.318270188,21.21447182,1660,61.10000229,35.20000076,-1.30859375,0.036327539,114.6305586,114,0,0,0,142.5,0,0,-39.679255,0,4.134773828
154,0.028000001,-0.225699991,0.016700001,4.849999905,7.460000038,356,0.096283932,-0.042315248,4.288789431,3.439625761,1.974077433,-0.12406135,-6.886638165,107.6107263,-1,-2.783363167,4.54706194,0.291660493,21.23441124,1606,61.10000229,35.20000076,-2.1875,0.227430178,114.6305586,114,0,0,0,142.5,0,0,-42.315248,0,3.439625761
155,0.056499999,0.0005,-0.0275,4.900000095,6.71999979,356,0.060486455,-0.042323552,4.282610099,2.86345694,2.318618499,-0.036021606,-6.886636181,107.6107259,-1,-2.752964137,4.536486117,0.259177987,21.23441124,1594,61.10000229,35.20000076,-2.578125,0.056502211,114.6305586,114,0,0,0,142.5,0,0,-42.323552,0,2.86345694
156,0.031500001,-0.0029,-0.0305,4.920000076,6.179999828,356.2000122,0.024688978,-0.039007325,4.342691154,2.641273935,2.732215556,0.115470366,-6.886634068,107.6107255,-1,-2.692082095,4.363134818,0.186655002,21.23046112,1626,61.10000229,35.20000076,-1.89453125,0.031633211,114.6305586,114,0,0,0,142.5,0,0,-39.007325,0,2.641273935
157,0.0153,-0.0056,-0.0363,4.949999809,5.889999866,356.3999939,-0.015199642,-0.039719924,4.366357378,2.492009644,3.130396745,0.046147796,-6.88663798,107.6107265,-1,-2.720552669,4.340947109,0.126974826,21.23442078,1600,61.10000229,35.20000076,-2.08984375,0.016292636,114.6305586,114,0,0,0,142.5,0,0,-39.719924,0,2.492009644
158,0.0272,-0.0186,-0.0383,4.929999828,5.78000021,356.6000061,-0.055088263,-0.038919538,4.453445886,2.585079734,3.559516446,0.100745584,-6.886636358,107.610726,-1,-2.698542067,4.346621644,0.081968169,21.22244072,1646,61.10000229,35.20000076,-2.1875,0.03295148,114.6305586,114,0,0,0,142.5,0,0,-38.919538,0,2.585079734
159,0.034599997,-0.0017,-0.039500002,5.079999924,5.900000095,356.8999939,-0.101113539,-0.039921157,4.492699246,2.967257788,3.960710849,-0.125472633,-6.886639169,107.610727,-1,-2.622666202,4.339173668,0.00623764,21.23042107,1626,61.10000229,35.20000076,-2.1875,0.034641735,114.6305586,114,0,0,0,142.5,0,0,-39.921157,0,2.967257788
160,0.0149,0.016700001,-0.0561,5.050000191,6.210000038,357.2000122,-0.132819872,-0.035629835,4.711658901,3.427808879,4.372007955,0.476539117,-6.886638008,107.6107265,-1,-2.619899296,4.337237171,-0.012787834,21.23042107,1626,61.10000229,35.20000076,-1.015625,0.022380796,114.6305586,114,0,0,0,142.5,0,0,-35.629835,0,3.427808879
161,0.0262,-0.021799998,-0.040200002,5.289999962,6.690000057,357.6000061,-0.139979343,-0.019540275,5.461513142,2.868667174,4.705305739,0.497868338,-6.886649553,107.6107315,0,-2.623103379,4.283560041,-0.047365449,21.23843002,1620,61.10000229,35.20000076,-2.1875,0.034083426,114.6305586,114,0,0,0,142.5,0,0,-19.540275,0,2.868667174
162,0.0083,-0.0526,0.037799999,6.019999981,5.880000114,358,-0.1256604,-0.003285739,5.407901849,2.29449079,5.080355438,-0.655768659,-6.886642797,107.6107259,0,-2.553047133,4.264374451,-0.082024265,21.23442078,1606,61.10000229,35.20000076,-2.28515625,0.053250822,114.6305586,114,0,0,0,142.5,0,0,-3.285739,0,2.29449079
163,-0.0007,-0.030200001,0.017899999,5.840000153,5.480000019,358.1000061,-0.122592072,0.009774258,4.785238558,3.269930554,5.406265189,-0.879573215,-6.886637565,107.6107184,0,-2.442913564,4.110303279,-0.07124518,21.21842194,1640,61.10000229,35.20000076,-1.796875,0.030208112,114.6305586,114,0,0,0,142.5,0,0,9.774258,0,3.269930554
164,0.008,-0.0087,-0.0019,5.239999771,6.550000191,358.1000061,-0.123614769,0.010660142,4.023121753,4.56856903,5.582275332,-0.516175749,-6.886634456,107.6107121,0,-2.370479707,3.978899831,-0.086922853,21.23442078,1626,61.20000076,35.20000076,-2.28515625,0.011819053,114.6305586,114,0,0,0,142.5,0,0,10.660142,0,4.56856903
