Time,%time,field.velocity_x,field.velocity_y,field.velocity_z,field.dvl_roll,field.dvl_pitch,field.dvl_yaw,field.depth_data,field.depth_rate,field.roll_data,field.pitch_data,field.yaw_data,field.yaw_rate_data,field.lat,field.long,field.gps_status,field.navigasi_north,field.navigasi_east,field.navigasi_depth,field.voltage,field.current,field.humidity,field.temperature,field.pressure,field.surge,field.des_mm,field.cur_mm,field.roll_sp,field.servo_position,field.yaw_sp,field.internal_volume,field.bow_percentage,Unnamed: 33,be_rate,depth_rate,mm_rate,pitch
0,1.70E+18,0.073699996,0.0027,0.055500001,0.980000019,-10.98999977,236.3999939,3.470449348,0.075786136,-0.298552954,-13.23750701,269.8427735,-0.087342668,-6.886526735,107.6101822,-1,0,0,0,20.54022026,2780,59.79999924,36.99000168,935.9000244,0.073749437,250.4979704,251,0,0,0,565,0.036277898,229888,0,75.786136,0,-13.23750701
1,1.70E+18,0.074900001,-0.0015,0.049200002,1.629999995,-10.55000019,236,3.531816502,0.072068565,-0.233068534,-12.53742653,269.1181602,-0.114274904,-6.886525558,107.6101921,-1,0,0,0,20.52823067,2854,59.79999924,37.00999832,935.2999878,0.07491502,250.4979704,251,0,0,0,547.5,0.036277898,11264,-17.5,72.068565,0,-12.53742653
2,1.70E+18,0.070300005,-0.011600001,0.046,1.340000033,-9.600000381,234.6000061,3.590116043,0.06681972,-0.083810757,-11.57192098,268.4910768,0.162641061,-6.886524266,107.6102036,-1,0,0,0,20.5202713,2866,59.81999969,36.99000168,935.2000122,0.071250619,250.4979704,251,0,0,0,530,0.036277898,29184,-17.5,66.81972,0,-11.57192098
3,1.70E+18,0.071400002,0.0001,0.036900003,1.309999943,-8.739999771,233.5,3.639208813,0.061096001,0.280752034,-10.45801922,268.1645375,0.333313801,-6.886523077,107.6102151,-1,0,0,0,20.51632118,2906,59.77999878,36.99000168,934.7000122,0.071400072,250.4979704,251,0,0,0,512.5,0.036277898,44317184,-17.5,61.096001,0,-10.45801922
4,1.70E+18,0.071800001,0.0009,0.035299998,1.860000014,-7.559999943,232.6999969,3.688303251,0.057691827,0.488198505,-9.290966164,268.1668883,0.058008189,-6.886521952,107.6102271,-1,0,0,0,20.51641083,2906,59.77999878,37.00999832,934.5,0.071805641,250.4979704,251,0,0,0,495,0.036277898,101978880,-17.5,57.691827,0,-9.290966164
5,1.70E+18,0.061900001,-0.0035,0.030200001,2.220000029,-6.239999771,231.8999939,3.729214687,0.054951198,0.503849226,-8.148253723,268.4376103,0.041690819,-6.88652086,107.6102397,-1,0,0,0,20.5283699,2900,59.75999832,37.00999832,934.2000122,0.061998872,250.4979704,251,0,0,0,477.5,0.036277898,100159232,-17.5,54.951198,0,-8.148253723
6,1.70E+18,0.054900002,-0.01,0.027100001,2.039999962,-5.150000095,283.7000122,3.769103308,0.051680345,0.451425868,-7.047652819,268.8436113,-0.073997156,-6.88651975,107.6102526,-1,0,0,0,20.65390015,1254,59.72999954,37.00999832,934.4000244,0.055803317,250.4979704,251,0,0,0,475,0.036277898,99768320,-2.5,51.680345,0,-7.047652819
7,1.70E+18,0.0515,-0.0023,0.029999999,1.940000057,-4.039999962,230.3999939,3.806946297,0.048159774,0.25978828,-6.015589615,269.1802918,-0.183990863,-6.886518622,107.610266,-1,0,0,0,20.5362606,2846,59.72999954,37.00999832,933.9000244,0.051551334,250.4979704,251,0,0,0,457.5,0.036277898,100180480,-17.5,48.159774,0,-6.015589615
8,1.70E+18,0.0504,-0.0039,0.0275,1.730000019,-2.980000019,229.6000061,3.846834917,0.047425058,0.145898223,-5.045338943,269.4608543,0.032891115,-6.886517483,107.61028,-1,0,0,0,20.52828026,2846,59.70999908,37.00999832,933.5,0.050550668,250.4979704,251,0,0,0,440,0.036277898,102333440,-17.5,47.425058,0,-5.045338943
9,1.70E+18,0.048799999,-0.0023,0.025799999,1.330000043,-2.049999952,228.8999939,3.877518435,0.043738794,0.194537326,-4.067534522,269.6984741,0.127401832,-6.886516343,107.6102945,-1,0,0,0,20.51252174,2906,59.72000122,37.00999832,933,0.04885417,250.4979704,251,0,0,0,422.5,0.036277898,98190592,-17.5,43.738794,0,-4.067534522
10,1.70E+18,0.043400001,-0.0077,0.023799999,1.639999986,-1.129999995,283.2999878,3.907179136,0.038671408,0.313639792,-3.090202476,269.9370779,0.062135869,-6.886515192,107.6103094,-1,0,0,0,20.65790939,1234,59.72000122,37.02000046,933.0999756,0.044077773,250.4979704,251,0,0,0,415,0.036277898,100029184,-7.5,38.671408,0,-3.090202476
11,1.70E+18,0.046700001,-0.0088,0.0219,1.690000057,-0.100000001,228,3.930702467,0.034191355,0.396054935,-2.145032167,270.1588436,-0.007129594,-6.886514055,107.6103247,-1,0,0,0,20.52420044,2826,59.70999908,37.02000046,932.9000244,0.04752189,250.4979704,251,0,0,0,400,0.036277898,98070528,-15,34.191355,0,-2.145032167
12,1.70E+18,0.0396,-0.0069,0.0208,1.730000019,0.819999993,227.5,3.954227228,0.031671766,0.222686026,-1.219868553,270.4037344,-0.255766488,-6.886512929,107.6103404,-1,0,0,0,20.52418137,2846,59.70000076,37.02000046,932.5,0.040196641,250.4979704,251,0,0,0,390,0.036277898,99764992,-10,31.671766,0,-1.219868553
13,1.70E+18,0.038400002,-0.012800001,0.0187,1.590000033,1.769999981,227,3.982866068,0.031216042,-0.031135954,-0.292673449,270.5700382,-0.200996156,-6.886511813,107.6103565,-1,0,0,0,20.51670074,3120,59.66999817,37.04000092,932.5999756,0.040477156,250.4979704,251,0,0,0,377.5,0.036277898,100048640,-12.5,31.216042,0,-0.292673449
14,1.70E+18,0.033500001,-0.0133,0.015699999,1.299999952,2.730000019,283.7999878,4.002297421,0.032277346,-0.086810624,0.666500218,270.6640693,0.015860933,-6.88651072,107.610373,-1,0,0,0,20.6539402,1214,59.68999863,37.02000046,932.2000122,0.036043585,250.4979704,251,0,0,0,375,0.036277898,99929600,-2.5,32.277346,0,0.666500218
15,1.70E+18,0.034000002,-0.0068,0.015699999,1.350000024,3.779999971,225.8000031,4.018663425,0.026175095,-0.096918745,1.596916028,270.7159777,-0.093136665,-6.886509684,107.6103898,-1,0,0,0,20.52449036,2840,59.63999939,37.02000046,932.0999756,0.034673335,250.4979704,251,0,0,0,365,0.036277898,100082176,-10,26.175095,0,1.596916028
16,1.70E+18,0.031200001,-0.0137,0.0137,1.279999971,4.690000057,225.1999969,4.032980938,0.025794834,-0.173296048,2.505241733,270.6675135,-0.089166593,-6.886508725,107.610407,-1,0,0,0,20.50476265,3166,59.63999939,37.02000046,931.7000122,0.034075359,250.4979704,251,0,0,0,352.5,0.036277898,99637760,-12.5,25.794834,0,2.505241733
17,1.70E+18,0.0298,-0.016299998,0.013,1.149999976,5.570000172,283,4.047300596,0.023522556,-0.218783129,3.300116724,270.5864937,0.043594305,-6.88650788,107.6104245,-1,0,0,0,20.64586067,1274,59.66999817,37.02000046,932.0999756,0.0339666,250.4979704,251,0,0,0,350,0.036277898,108919552,-2.5,23.522556,0,3.300116724
18,1.70E+18,0.0275,-0.0075,0.0144,0.879999995,6.400000095,224.1999969,4.057528515,0.020912113,-0.15637675,3.974414887,270.5042438,0.023568927,-6.886507161,107.6104424,-1,0,0,0,20.52031136,2994,59.61999893,37.00999832,931.5999756,0.028504385,250.4979704,251,0,0,0,340,0.036277898,99964928,-10,20.912113,0,3.974414887
19,1.70E+18,0.027100001,-0.0155,0.0136,1.080000043,7.019999981,223.8999939,4.075938721,0.019874286,-0.148774871,4.5569531,270.3900945,-0.078318301,-6.886506561,107.6104605,-1,0,0,0,20.5046711,3120,59.63999939,37.04000092,931.5999756,0.031219545,250.4979704,251,0,0,0,327.5,0.036277898,98280704,-12.5,19.874286,0,4.5569531
20,1.70E+18,0.024799999,-0.0143,0.0137,1.090000033,7.579999924,283.1000061,4.087189217,0.019544,-0.158071509,5.04462867,270.2857309,0.070025182,-6.88650611,107.610478,-1,0,0,0,20.64986992,1226,59.61999893,37.02000046,931.2999878,0.028627433,250.4979704,251,0,0,0,325,0.036277898,99979776,-2.5,19.544,0,5.04462867
21,1.70E+18,0.025899999,-0.0127,0.0132,0.970000029,8.229999542,223.1999969,4.103553791,0.017789958,-0.095810899,5.465934089,270.1383427,0.082851836,-6.886505764,107.6104977,-1,0,0,0,20.52037048,2834,59.61999893,37.00999832,931.0999756,0.028846142,250.4979704,251,0,0,0,307.5,0.036277898,98425344,-17.5,17.789958,0,5.465934089
22,1.70E+18,0.024,-0.016299998,0.0137,1.24000001,8.630000114,281.2000122,4.111736078,0.015702801,-0.094831758,5.831918519,269.9571142,-0.06042488,-6.886505545,107.6105166,-1,0,0,0,20.65773964,1160,59.59000015,37.02000046,930.7999878,0.029011893,250.4979704,251,0,0,0,302.5,0.036277898,99373568,-5,15.702801,0,5.831918519
23,1.70E+18,0.022,-0.0141,0.0122,1.149999976,8.850000381,223,4.122986813,0.015433065,-0.099723179,6.154246154,269.7438769,0.065482437,-6.886505467,107.6105348,-1,0,0,0,20.53217125,2814,59.56000137,37.00999832,930.7000122,0.026130633,250.4979704,251,0,0,0,287.5,0.036277898,99646720,-15,15.433065,0,6.154246154
24,1.70E+18,0.0013,-0.030400001,0.017100001,1.200000048,9.289999962,281.2000122,4.13014533,0.013252559,-0.055578021,6.532820309,269.5153321,0.050616111,-6.886505494,107.610555,-1,0,0,0,20.64978981,1166,59.61999893,37.04000092,930.5,0.030427784,250.4979704,251,0,0,0,285,0.036277898,100007936,-2.5,13.252559,0,6.532820309
25,1.70E+18,0.018999999,-0.015699999,0.0074,1.360000014,9.710000038,222.6000061,4.135259409,0.007493216,-0.017843807,6.906445619,269.3563267,0.053963737,-6.886505669,107.6105743,-1,0,0,0,20.52431107,2834,59.59000015,37.02000046,930.5,0.024647311,250.4979704,251,0,0,0,277.5,0.036277898,100402944,-7.5,7.493216,0,6.906445619
26,1.70E+18,0.019200001,-0.0139,0.0049,1.269999981,10.06999969,222.5,4.134237309,0.005235916,0.026317097,7.26389866,269.2394712,0.123173602,-6.88650601,107.6105937,-1,0,0,0,20.51275063,3194,59.61000061,37.04000092,930.2999878,0.023703376,250.4979704,251,0,0,0,267.5,0.036277898,100079616,-10,5.235916,0,7.26389866
27,1.70E+18,0.008,-0.014,0.0026,1.200000048,10.40999985,279.6000061,4.138328571,0.004360267,0.091161352,7.664799216,269.1746608,0.01123734,-6.886506489,107.6106133,-1,0,0,0,20.64978981,1220,59.54999924,37.04000092,930,0.016124516,250.4979704,251,0,0,0,262.5,0.036277898,99572736,-5,4.360267,0,7.664799216
28,1.70E+18,0.0132,-0.0135,-0.0008,1.269999981,10.78999996,222,4.129123468,-0.001196501,0.068233136,8.085647206,269.1400826,-0.067463676,-6.886507078,107.6106319,-1,0,0,0,20.53620148,2780,59.61000061,37.02000046,929.7999878,0.018880943,250.4979704,251,0,0,0,252.5,0.036277898,100075776,-10,-1.196501,0,8.085647206
29,1.70E+18,0.02,-0.0131,-0.0052,1.419999957,11.18999958,221.8999939,4.126055975,-0.002216175,0.076359051,8.579553787,269.1453035,0.043717194,-6.886507897,107.6106526,-1,0,0,0,20.5281105,2774,59.59000015,36.99000168,929.5999756,0.023908366,250.4979704,251,0,0,0,242.5,0.036277898,101281280,-10,-2.216175,0,8.579553787
30,1.70E+18,0.023600001,-0.012800001,-0.011,1.330000043,11.93000031,221.5,4.112758894,-0.003664309,0.124349111,9.164860484,269.1954625,0.019132547,-6.886508835,107.6106723,-1,0,0,0,20.52820969,2834,59.58000183,37.04000092,929.2999878,0.02684772,250.4979704,251,0,0,0,232.5,0.036277898,100093696,-10,-3.664309,0,9.164860484
31,1.70E+18,0.018999999,-0.0121,-0.0145,1.340000033,12.30000019,221.5,4.094347973,-0.010728578,0.115351458,9.835057388,269.2814845,-0.039160956,-6.88650994,107.610692,-1,0,0,0,20.52416039,2800,59.58000183,36.99000168,929.0999756,0.022525762,250.4979704,251,0,0,0,217.5,0.036277898,96324352,-15,-10.728578,0,9.835057388
32,1.70E+18,0.039000001,-0.011899999,-0.0252,1.460000038,13.14999962,221.3000031,4.075938721,-0.013619057,0.202321044,10.62790641,269.4063217,0.094474613,-6.886511214,107.6107117,-1,0,0,0,20.53229141,2780,59.61999893,36.99000168,928.9000244,0.040775116,250.4979704,251,0,0,0,202.5,0.036277898,101642496,-15,-13.619057,0,10.62790641
33,1.70E+18,0.02,-0.0093,-0.0266,1.330000043,14.07999992,220.8999939,4.047300596,-0.016280763,0.218551545,11.53886745,269.6234132,-0.138727571,-6.886512567,107.6107303,-1,0,0,0,20.5282402,2894,59.56000137,37.02000046,928.4000244,0.022056518,250.4979704,251,0,0,0,187.5,0.036277898,98868992,-15,-16.280763,0,11.53886745
34,1.70E+18,0.02,-0.0093,-0.0266,1.330000043,14.07999992,220.8999939,4.007411261,-0.026076538,0.144496123,12.55713223,269.8636025,-0.056760006,-6.886514121,107.6107499,-1,0,0,0,20.53220177,2806,59.56999969,36.97999954,928.4000244,0.022056518,250.4979704,251,0,0,0,172.5,0.036277898,99909632,-15,-26.076538,0,12.55713223
35,1.70E+18,0.0264,-0.0085,-0.039500002,1.24000001,15.94999981,220.5,3.966499825,-0.027664168,0.238548938,13.64908344,270.1701055,0.003480174,-6.886515907,107.6107702,-1,0,0,0,20.5322113,2794,59.54999924,36.97000122,927.9000244,0.027734635,250.4979704,251,0,0,0,157.5,0.036277898,99954688,-15,-27.664168,0,13.64908344
36,1.70E+18,0.027899999,-0.0016,-0.048099998,1.470000029,16.79999924,220.6000061,3.918429871,-0.036962628,0.301415213,14.76408456,270.5556876,-0.057938604,-6.88651776,107.6107895,-1,0,0,0,20.5322113,2820,59.54000092,36.99000168,927.9000244,0.02794584,250.4979704,251,0,0,0,142.5,0.036277898,99952128,-15,-36.962628,0,14.76408456
37,1.70E+18,0.027899999,-0.0016,-0.048099998,1.470000029,16.79999924,220.6000061,3.860131998,-0.041752059,0.281670626,15.87085625,271.0115469,-0.180508769,-6.88651976,107.6108087,-1,0,0,0,20.52824974,2820,59.56999969,36.97999954,927.5,0.02794584,250.4979704,251,0,0,0,127.5,0.036277898,,-15,-41.752059,0,15.87085625
38,1.70E+18,0.027899999,-0.0016,-0.048099998,1.470000029,16.79999924,220.6000061,3.796718378,-0.051617354,0.232264672,16.90604884,271.3473253,-0.098109449,-6.886521766,107.6108268,-1,0,0,0,20.52440071,2940,59.58000183,37.00999832,927.4000244,0.02794584,250.4979704,251,0,0,0,112.5,0.036277898,,-15,-51.617354,0,16.90604884
39,1.70E+18,0.027899999,-0.0016,-0.048099998,1.470000029,16.79999924,220.6000061,3.734328527,-0.053907834,0.338389951,18.02685857,271.4858571,0.156862446,-6.886524095,107.6108466,-1,0,0,0,20.52031136,2900,59.54000092,36.95000076,927,0.02794584,250.4979704,251,0,0,0,97.5,0.036277898,,-15,-53.907834,0,18.02685857
40,1.70E+18,0.027899999,-0.0016,-0.048099998,1.470000029,16.79999924,220.6000061,3.662733574,-0.06058374,0.409182117,19.09204406,271.4351788,0.137145954,-6.886526417,107.6108653,-1,0,0,0,20.52831078,2874,59.58000183,36.97999954,926.5,0.02794584,250.4979704,251,0,0,0,82.5,0.036277898,,-15,-60.58374,0,19.09204406
41,1.70E+18,0.027899999,-0.0016,-0.048099998,1.470000029,16.79999924,220.6000061,3.579888124,-0.06791281,0.386997087,20.0826744,271.2392443,0.065968741,-6.886528826,107.6108838,-1,0,0,0,20.52836037,2860,59.54000092,36.97000122,926.5,0.02794584,250.4979704,251,0,0,0,67.5,0.036277898,,-15,-67.91281,0,20.0826744
42,1.70E+18,0.027899999,-0.0016,-0.048099998,1.470000029,16.79999924,220.6000061,3.501132865,-0.073043197,0.34449905,20.95601361,271.0334419,0.040310067,-6.886531315,107.6109019,-1,0,0,0,20.52039146,2880,59.54000092,36.97999954,926.4000244,0.02794584,250.4979704,251,0,0,0,55,0.036277898,,-12.5,-73.043197,0,20.95601361
43,1.70E+18,0.027899999,-0.0016,-0.048099998,1.470000029,16.79999924,220.6000061,3.409082313,-0.082890131,0.237141071,21.62075214,270.835102,-0.10269768,-6.886533775,107.6109188,-1,0,0,0,20.64591026,1254,59.54000092,36.97000122,926.0999756,0.02794584,250.4979704,251,0,0,0,55,0.036277898,,0,-82.890131,0,21.62075214
44,1.70E+18,0.095300004,0.072300002,-0.085199997,1.059999943,25.70000076,276.8999939,3.324191947,-0.083702378,0.099472029,22.11687197,270.4822395,0.095518507,-6.886536589,107.610937,-1,0,0,0,20.6418705,1260,59.54000092,36.95000076,926.2000122,0.119621825,250.4979704,251,0,0,0,55,0.036277898,,0,-83.702378,0,22.11687197
45,1.70E+18,0.041499998,-0.016000001,-0.098900005,1.149999976,26.09000015,276.1000061,3.233164091,-0.084901467,0.233568699,22.40640874,269.9629091,0.450578228,-6.886539224,107.6109531,-1,0,0,0,20.63786125,1240,59.59999847,36.95000076,926.5,0.044477521,250.4979704,251,0,0,0,55,0.036277898,,0,-84.901467,0,22.40640874
46,1.70E+18,0.1523,0.0153,-0.0495,1.289999962,26.23999977,275.2000122,3.142136354,-0.089324638,0.367082273,22.52408255,269.3592242,0.265248396,-6.886542264,107.6109705,-1,0,0,0,20.64185143,1254,59.56999969,36.95000076,926.4000244,0.153066587,250.4979704,251,0,0,0,55,0.036277898,,0,-89.324638,0,22.52408255
47,1.70E+18,0.0145,-0.012,-0.073600002,1.25,26.15999985,274.5,3.044971843,-0.093730949,0.399090652,22.48297812,268.7838032,0.189922501,-6.886493097,107.6107461,-1,0,0,0,20.63790131,1260,59.56999969,36.97000122,926.0999756,0.01882153,250.4979704,251,0,0,0,55,0.036277898,,0,-93.730949,0,22.48297812
48,1.70E+18,0.130100012,0.0019,-0.0561,1.129999995,26.12999916,274.2999878,2.948829193,-0.097153142,0.249982201,22.39075967,268.4178474,0.009491785,-6.886473777,107.6106669,-1,0,0,0,20.63396263,1314,59.63000107,36.95000076,926.4000244,0.130113885,250.4979704,251,0,0,0,55,0.036277898,,0,-97.153142,0,22.39075967
49,1.70E+18,0.134100005,0.048799999,-0.061799999,1.039999962,25.88999939,274.2999878,2.853711028,-0.096722677,0.152675379,22.21191954,268.2526096,0.01352353,-6.88646338,107.6106301,-1,0,0,0,20.62994003,1354,59.63000107,36.91999817,926.4000244,0.142703368,250.4979704,251,0,0,0,55,0.036277898,,0,-96.722677,0,22.21191954
50,1.70E+18,0.118099995,-0.038400002,-0.0583,1.090000033,25.69000053,274.3999939,2.753478189,-0.099286541,0.238322119,21.98318349,268.2564092,0.082270195,-6.886464436,107.6106336,-1,0,0,0,20.64195061,1334,59.63000107,36.91999817,926.2000122,0.124186026,250.4979704,251,0,0,0,55,0.036277898,,0,-99.286541,0,21.98318349
51,1.70E+18,0.1184,-0.064099997,-0.064199999,1,25.40999985,274.8999939,2.657335658,-0.101429418,0.110672894,21.74824932,268.337675,-0.357014005,-6.886457521,107.6106179,-1,0,0,0,20.64990044,1260,59.59999847,36.93999863,926.4000244,0.134637921,250.4979704,251,0,0,0,55,0.036277898,,0,-101.429418,0,21.74824932
52,1.70E+18,0.098199993,0.008,-0.065199994,0.800000012,25.23999977,275.3999939,2.562217493,-0.09739171,-0.216903393,21.55685577,268.467077,-0.192783693,-6.886458438,107.6106197,-1,0,0,0,20.64587021,1246,59.61999893,36.90999985,926.5999756,0.09852532,250.4979704,251,0,0,0,55,0.036277898,,0,-97.39171,0,21.55685577
53,1.70E+18,0.103699997,0.023200002,-0.057500001,0.730000019,25.07999992,275.7999878,2.454825122,-0.102671407,-0.192498334,21.41291511,268.5676684,0.052080735,-6.886453388,107.6106139,-1,0,0,0,20.64585114,1240,59.65000153,36.91999817,926,0.106263491,250.4979704,251,0,0,0,55,0.036277898,,0,-102.671407,0,21.41291511
54,1.70E+18,0.125499994,0.0051,-0.074300006,0.850000024,24.96999931,275.8999939,2.35152467,-0.106394,-0.000126919,21.30483746,268.6101464,0.13947603,-6.88644986,107.6106122,-1,0,0,0,20.65388107,1214,59.65000153,36.90999985,926.2000122,0.125603576,250.4979704,251,0,0,0,55,0.036277898,,0,-106.394,0,21.30483746
55,1.70E+18,0.145300001,-0.039000001,-0.1193,0.910000026,24.88999939,357.7000122,2.252313752,-0.102008373,0.184323269,21.23698953,268.6335995,0.046464126,-6.886447141,107.610613,-1,0,0,0,20.65386963,1246,59.72000122,36.90999985,926.2999878,0.15044298,250.4979704,251,0,0,0,57.5,0.036277898,,2.5,-102.008373,0,21.23698953
56,1.70E+18,0.137899995,0.0091,-0.044199999,1.299999952,24.76000023,357.8999939,2.144921381,-0.105966143,0.145484653,21.18576275,268.6843325,-0.244230987,-6.886444968,107.6106154,-1,0,0,0,20.65382957,1234,59.72999954,36.88000107,926.5,0.138199923,250.4979704,251,0,0,0,62.5,0.036277898,,5,-105.966143,0,21.18576275
57,1.70E+18,0.138899997,0.021399999,-0.066100001,0.860000014,24.72999954,357.6000061,2.033437033,-0.107710302,0.1150736,21.09081426,268.8263359,-0.010663903,-6.886445704,107.6106142,-1,0,0,0,20.65384102,1234,59.72000122,36.90999985,926.5999756,0.140538853,250.4979704,251,0,0,0,67.5,0.036277898,,5,-107.710302,0,21.09081426
58,1.70E+18,0.129899994,0.0623,-0.063900001,1.220000029,24.72999954,357.7999878,1.926044662,-0.110871941,0.237974083,20.91390293,269.0772129,-0.003859322,-6.886446455,107.6106125,-1,0,0,0,20.53225136,2814,59.72000122,36.90000153,927,0.144066993,250.4979704,251,0,0,0,85,0.036277898,,17.5,-110.871941,0,20.91390293
59,1.70E+18,0.128000006,0.0093,-0.055199999,0.959999979,24.12999916,357.5,1.816607524,-0.110477954,0.115247792,20.57638878,269.3190969,-0.576355038,-6.886447254,107.6106103,-1,0,0,0,20.64594078,1246,59.75,36.88000107,927.2999878,0.128337413,250.4979704,251,0,0,0,90,0.036277898,,5,-110.477954,0,20.57638878
60,1.70E+18,0.127100006,0.020299999,-0.0548,0.680000007,23.78000069,357.2999878,1.718420212,-0.107293613,-0.344294174,20.05053573,269.7422641,-0.606644887,-6.886448112,107.6106077,-1,0,0,0,20.5163002,2880,59.77000046,36.88000107,927.5,0.128710922,250.4979704,251,0,0,0,107.5,0.036277898,,17.5,-107.293613,0,20.05053573
61,1.70E+18,0.105999999,0.0076,-0.049200002,0.200000003,22.98999977,357,1.615118962,-0.108327076,-0.621982275,19.33483694,270.2226153,-0.272626926,-6.886449004,107.6106045,-1,0,0,0,20.53226089,2786,59.79000092,36.88000107,927.7000122,0.106272102,250.4979704,251,0,0,0,125,0.036277898,,17.5,-108.327076,0,19.33483694
62,1.70E+18,0.012,-0.0028,-0.064300001,0.449999988,22.12999916,357.2000122,1.522045569,-0.104599439,-0.573508447,18.43261016,270.6804154,0.063152916,-6.886449921,107.6106009,-1,0,0,0,20.53218269,2820,59.79999924,36.90000153,928.0999756,0.012322338,250.4979704,251,0,0,0,142.5,0.036277898,,17.5,-104.599439,0,18.43261016
63,1.70E+18,-0.052700002,-0.0088,-0.080600001,1.019999981,21.12999916,357.6000061,1.43306331,-0.099006005,0.072503623,17.42673736,270.8694616,0.464447127,-6.886450824,107.6105968,-1,0,0,0,20.54018211,2900,59.79000092,36.86999893,928.2999878,0.053429675,250.4979704,251,0,0,0,160,0.036277898,,17.5,-99.006005,0,17.42673736
64,1.70E+18,0.112400003,0.011100001,-0.021200001,1.230000019,20.25,357.7999878,1.352263336,-0.093141556,0.319825503,16.44670261,270.814683,-0.103950174,-6.886451725,107.6105923,-1,0,0,0,20.53617096,2766,59.81999969,36.86999893,928.7999878,0.11294676,250.4979704,251,0,0,0,177.5,0.036277898,,17.5,-93.141556,0,16.44670261
65,1.70E+18,0.114,-0.040599998,-0.038799997,1.149999976,19.27000046,357.7000122,1.270440568,-0.089462906,0.083464916,15.4773369,270.5608538,-0.369437401,-6.886452643,107.6105874,-1,0,0,0,20.53217125,2806,59.84000015,36.86999893,929.2000122,0.121013883,250.4979704,251,0,0,0,195,0.036277898,,17.5,-89.462906,0,15.4773369
66,1.70E+18,0.119400002,0.0266,-0.025,0.970000029,18.05999947,357.5,1.197822858,-0.085139699,-0.029658934,14.57900018,270.2621958,0.123668335,-6.886453577,107.610582,-1,0,0,0,20.53218269,2806,59.88999939,36.86999893,929.4000244,0.122327104,250.4979704,251,0,0,0,212.5,0.036277898,,17.5,-85.139699,0,14.57900018
67,1.70E+18,0.093599997,-0.0009,-0.0276,1.080000043,17.51000023,357.6000061,1.135433007,-0.075710028,0.092623961,13.73836939,269.8134161,0.113243569,-6.886454501,107.6105762,-1,0,0,0,20.53621101,2774,59.90999985,36.86000061,930,0.093604324,250.4979704,251,0,0,0,230,0.036277898,,17.5,-75.710028,0,13.73836939
68,1.70E+18,0.104999997,-0.0027,-0.0221,1.149999976,16.55999947,357.6000061,1.078157057,-0.067777447,0.005267475,12.94012349,269.2860221,-0.028117184,-6.886455417,107.6105699,-1,0,0,0,20.53222084,2760,59.90999985,36.86000061,930.0999756,0.105034705,250.4979704,251,0,0,0,247.5,0.036277898,,17.5,-67.777447,0,12.94012349
69,1.70E+18,0.100199997,-0.044,-0.0209,0.790000021,15.84000015,357.2999878,1.022926707,-0.063075624,-0.103555624,12.13061829,268.7686598,-0.009592302,-6.886456327,107.6105631,-1,0,0,0,20.5361824,2786,59.95000076,36.86999893,930.2999878,0.109435092,250.4979704,251,0,0,0,265,0.036277898,,17.5,-63.075624,0,12.13061829
70,1.70E+18,0.092500001,-0.0121,-0.0188,1.139999986,14.93999958,357.3999939,0.970764716,-0.060472924,-0.191094539,11.35009461,268.4620201,-0.006188496,-6.886457246,107.610556,-1,0,0,0,20.5362606,2800,59.95000076,36.88000107,930.5999756,0.09328805,250.4979704,251,0,0,0,282.5,0.036277898,,17.5,-60.472924,0,11.35009461
71,1.70E+18,0.087800004,0.0007,-0.009699999,0.730000019,14.14999962,357.2000122,0.926784952,-0.055260111,0.017754638,10.44808053,268.3020033,0.289182627,-6.88645818,107.6105485,-1,0,0,0,20.52429008,2840,59.95999908,36.88000107,931,0.087802794,250.4979704,251,0,0,0,300,0.036277898,,17.5,-55.260111,0,10.44808053
72,1.70E+18,0.088500001,-0.011899999,-0.0099,1.200000048,13.17000008,357.5,0.887919147,-0.049103934,0.070384903,9.548035397,268.3489915,-0.079276654,-6.886459075,107.6105406,-1,0,0,0,20.5243206,2826,59.95000076,36.90000153,931.2000122,0.089296473,250.4979704,251,0,0,0,317.5,0.036277898,,17.5,-49.103934,0,9.548035397
73,1.70E+18,0.068999998,0.033400003,-0.0029,1.340000033,12.18999958,357.5,0.858258386,-0.042033598,-0.077543949,8.630496966,268.5137099,-0.073721428,-6.886459943,107.6105324,-1,0,0,0,20.51627159,2860,59.93999863,36.86999893,931.5,0.076658724,250.4979704,251,0,0,0,337.5,0.036277898,,20,-42.033598,0,8.630496966
74,1.70E+18,0.079900004,-0.0057,-0.0007,1.090000033,11.32999992,281.8999939,0.836779912,-0.033611253,0.00892226,7.704424156,268.7142093,0.057460028,-6.886460771,107.610524,-1,0,0,0,20.53223228,2814,59.95999908,36.86000061,931.9000244,0.080103063,250.4979704,251,0,0,0,345,0.036277898,,7.5,-33.611253,0,7.704424156
75,1.70E+18,0.0603,-0.055,0.017000001,1.24000001,10.10999966,357.3999939,0.818369765,-0.026391057,0.116251204,6.750194985,268.9101438,0.057574305,-6.886461498,107.6105153,-1,0,0,0,20.52032089,2974,59.97000122,36.86999893,931.7999878,0.081615501,250.4979704,251,0,0,0,360,0.036277898,,15,-26.391057,0,6.750194985
76,1.70E+18,0.071900003,-0.009699999,-0.0035,1.200000048,9.359999657,357.3999939,0.800982435,-0.026962779,0.050032091,5.960625258,269.042826,-0.155406491,-6.886462123,107.6105065,-1,0,0,0,20.63785172,1214,59.97999954,36.86000061,932,0.072551364,250.4979704,251,0,0,0,365,0.036277898,,5,-26.962779,0,5.960625258
77,1.70E+18,0.0392,-0.0025,0.0065,1.129999995,8.5,357.2999878,0.791777391,-0.01804132,-0.004901392,5.20315064,269.1377591,0.071117465,-6.886462657,107.6104975,-1,0,0,0,20.64585114,1240,59.95999908,36.86999893,932.2000122,0.039279639,250.4979704,251,0,0,0,370,0.036277898,,5,-18.04132,0,5.20315064
78,1.70E+18,0.0009,-0.016700001,-0.006,1.080000043,7.989999771,357.2999878,0.778481205,-0.017568469,0.069719803,4.635957396,269.1521098,0.072395492,-6.886463059,107.6104884,-1,0,0,0,20.65384102,1194,60,36.86999893,932.2000122,0.016724235,250.4979704,251,0,0,0,375,0.036277898,,5,-17.568469,0,4.635957396
79,1.70E+18,0.052900001,-0.0071,-0.015699999,1.360000014,7.559999943,284.3999939,0.769276102,-0.014942992,0.098707654,4.368742323,269.1901869,-0.148931057,-6.886463341,107.6104792,-1,0,0,0,20.6538105,1206,59.97000122,36.88000107,932,0.05337434,250.4979704,251,0,0,0,375,0.036277898,,0,-14.942992,0,4.368742323
80,1.70E+18,0.016700001,-0.0187,0.0052,1.179999948,7.210000038,284.5,0.763139446,-0.010003375,0.04288801,4.132209073,269.1661324,-0.05696633,-6.886463258,107.6105395,-1,0,0,0,20.65386963,1246,60,36.88000107,932.0999756,0.025071499,250.4979704,251,0,0,0,375,0.036277898,,0,-10.003375,0,4.132209073
81,1.70E+18,0.033,-0.043400001,0.0034,1.149999976,7.190000057,284.6000061,0.752911587,-0.008560959,0.087518354,4.130495534,269.1455495,0.086821929,-6.886463911,107.610573,-1,0,0,0,20.64981079,1174,59.97999954,36.88000107,932.0999756,0.054521189,250.4979704,251,0,0,0,375,0.036277898,,0,-8.560959,0,4.130495534
82,1.70E+18,0.031399999,-0.041999999,-0.011899999,1.24000001,7.239999771,284.5,0.742683728,-0.005792175,0.121559832,4.298572233,269.0470082,-0.012334524,-6.886464857,107.610594,-1,0,0,0,20.65786934,1220,59.97999954,36.88000107,932.2000122,0.05244006,250.4979704,251,0,0,0,375,0.036277898,,0,-5.792175,0,4.298572233
83,1.70E+18,0.0352,0.222000003,0.0063,1.389999986,7.539999962,284.2000122,0.736547012,-0.005488052,0.112953112,4.464660338,268.9964392,0.048846312,-6.886466077,107.6106081,-1,0,0,0,20.65385056,1226,59.95999908,36.90000153,932,0.224773311,250.4979704,251,0,0,0,375,0.036277898,,0,-5.488052,0,4.464660338
84,1.70E+18,0.038400002,-0.081300005,-0.0017,1.269999981,7.699999809,284.2000122,0.729387541,-0.006623192,0.154567206,4.756488523,268.9712366,0.173974756,-6.886465659,107.6106046,-1,0,0,0,20.64988136,1206,59.95999908,36.86999893,932.2000122,0.089912463,250.4979704,251,0,0,0,375,0.036277898,,0,-6.623192,0,4.756488523
85,1.70E+18,0.0286,0.091800004,-0.026000001,1.210000038,7.929999828,284.2000122,0.724273582,-0.002555188,0.119966336,4.991206157,268.9293054,-0.025293986,-6.886465122,107.6106011,-1,0,0,0,20.64586067,1206,59.95999908,36.86999893,932,0.096151967,250.4979704,251,0,0,0,375,0.036277898,,0,-2.555188,0,4.991206157
86,1.70E+18,0.0139,-0.053099997,-0.010199999,0.800000012,8.06000042,282.2999878,0.718136926,-0.001245333,-2.529538575,5.191306637,263.8544702,-2.278472279,-6.886463667,107.6105976,-1,0,0,0,20.0179615,9286,59.93999863,36.90000153,932.2000122,0.054889158,250.4979704,251,0,0,0,375,0.036277898,,0,-1.245333,0,5.191306637
87,1.70E+18,-0.0055,-0.156000003,-0.0107,-2.150000095,7.940000057,271.7000122,0.720182498,-0.003381259,-3.919208363,4.598337706,252.2376419,1.12831831,-6.886461394,107.610594,-1,0,0,0,20.07307053,8720,59.93999863,36.88000107,932.0999756,0.156096928,250.4979704,251,0,0,0,375,0.036277898,,0,-3.381259,0,4.598337706
88,1.70E+18,-0.0348,-0.211100012,0.002,-2.329999924,7.809999943,255.8000031,0.724273582,-0.000634114,-3.184154321,4.354898195,237.8994887,2.241601729,-6.88645876,107.6105889,-1,0,0,0,20.05713081,8706,59.93000031,36.86999893,932.0999756,0.213949188,250.4979704,251,0,0,0,375,0.036277898,,0,-0.634114,0,4.354898195
89,1.70E+18,0.0023,-0.241399989,-0.0288,-1.460000038,8.109999657,238,0.731433113,0.005206134,-1.49705051,4.510730695,222.3689176,3.250881318,-6.88645676,107.6105825,-1,0,0,0,20.06513023,8646,59.95000076,36.88000107,932.0999756,0.241410945,250.4979704,251,0,0,0,375,0.036277898,,0,5.206134,0,4.510730695
90,1.70E+18,-0.126499996,-0.179199994,-0.021200001,-0.150000006,8.56000042,205.3999939,0.741660972,0.012564898,-0.008477638,4.919492088,206.5588638,2.975070149,-6.886455839,107.610574,-1,0,0,0,20.05316162,8840,59.93000031,36.86999893,932.0999756,0.219351058,250.4979704,251,0,0,0,372.5,0.036277898,,-2.5,12.564898,0,4.919492088
91,1.70E+18,-0.087800004,-0.209000006,-0.0103,1.139999986,9.279999733,205,0.747797627,0.015150039,1.205152067,5.899009621,190.6754576,2.037106995,-6.886456483,107.6105635,-1,0,0,0,19.95141029,10292,59.93999863,36.90000153,931.9000244,0.22669328,250.4979704,251,0,0,0,365,0.036277898,,-7.5,15.150039,0,5.899009621
92,1.70E+18,0.070500001,-0.231600001,0.0056,1.149999976,10.68999958,191.8999939,0.7447293,0.013414269,0.316980514,7.687592867,174.8367707,0.401239703,-6.886459159,107.610551,-1,0,0,0,19.93584061,10586,59.90999985,36.88000107,931.5999756,0.242092567,250.4979704,251,0,0,0,352.5,0.036277898,,-12.5,13.414269,0,7.687592867
93,1.70E+18,-0.132300004,-0.233999997,-0.037,-0.360000014,12.34000015,184.1000061,0.742683728,0.01109988,0.012010564,9.280908734,159.3613199,3.029089113,-6.886464219,107.610537,-1,0,0,0,20.04508209,8772,59.95999908,36.88000107,931.7000122,0.268810881,250.4979704,251,0,0,0,350,0.036277898,,-2.5,11.09988,0,9.280908734
94,1.70E+18,-0.152399987,-0.279500008,-0.031500001,-0.479999989,13.64999962,158.8000031,0.740638156,0.009036746,-0.56368758,10.41854633,144.460183,1.284999037,-6.886472113,107.6105216,-1,0,0,0,19.93157959,10346,59.95999908,36.90000153,931.2999878,0.318348881,250.4979704,251,0,0,0,340,0.036277898,,-10,9.036746,0,10.41854633
95,1.70E+18,-0.718800008,-0.222000003,-0.153999999,-1.99000001,14.47999954,170.6000061,0.7396154,0.006589158,-1.912285615,11.13537182,129.5718114,2.334157586,-6.886483303,107.6105053,-1,0,0,0,19.95127106,10398,59.93000031,36.90000153,931.2000122,0.752301438,250.4979704,251,0,0,0,330,0.036277898,,-10,6.589158,0,11.13537182
96,1.70E+18,-0.117699996,-0.249699995,-0.0495,-2.700000048,14.84000015,138,0.752911587,0.010046063,-1.527581032,11.27714023,113.7898302,3.96015049,-6.886498197,107.6104886,-1,0,0,0,20.05710983,8740,59.93000031,36.90000153,931.0999756,0.276049591,250.4979704,251,0,0,0,325,0.036277898,,-5,10.046063,0,11.27714023
97,1.70E+18,-0.112000003,-0.0414,-0.0062,-2.359999895,14.72000027,146.1999969,0.766207774,0.011256231,-0.713328149,11.01817637,97.37559261,5.143409559,-6.886515894,107.6104728,-1,0,0,0,19.93556976,10252,59.93999863,36.88000107,931.2000122,0.119406703,250.4979704,251,0,0,0,315,0.036277898,,-10,11.256231,0,11.01817637
98,1.70E+18,-0.082900003,-0.045599997,-0.035999998,-1.110000014,14.30000019,154.3000031,0.781549532,0.01257332,2.336569012,10.85274216,85.69012022,4.610568665,-6.886538582,107.6104562,-1,0,0,0,20.54383087,2574,59.93000031,36.86999893,931.0999756,0.094613795,250.4979704,251,0,0,0,302.5,0.036277898,,-12.5,12.57332,0,10.85274216
99,1.70E+18,-0.092199996,-0.085099995,-0.0007,2.019999981,13.84000015,90.09999847,0.800982435,0.014547654,4.471834393,10.31791993,81.94783387,-0.471833293,-6.886562306,107.6104409,-1,0,0,0,20.27673149,6020,59.91999817,36.86000061,930.5,0.125470508,250.4979704,251,0,0,0,300,0.036277898,,-2.5,14.547654,0,10.31791993
100,1.70E+18,-0.133899987,-0.0108,-0.0139,2.910000086,12.60999966,29.39999962,0.822460909,0.012710028,2.482032083,9.075411376,83.8940994,-2.260628115,-6.886586838,107.6104266,-1,0,0,0,20.15914154,7266,59.95999908,36.88000107,930.7999878,0.13433483,250.4979704,251,0,0,0,317.5,0.036277898,,17.5,12.710028,0,9.075411376
101,1.70E+18,-0.126000002,0.021,-0.0021,1.269999981,11.35999966,29.20000076,0.838825483,0.007570091,1.661655179,7.835119488,86.65020071,0.072385795,-6.886616596,107.6104109,-1,0,0,0,20.43404198,4000,60,36.84000015,931.2000122,0.127738015,250.4979704,251,0,0,0,335,0.036277898,,17.5,7.570091,0,7.835119488
102,1.70E+18,-0.136299998,0.141100004,-0.020500001,1.929999948,10.03999996,30.29999924,0.855190058,0.006287698,1.736794403,6.755797299,88.87299003,-0.507589424,-6.886647316,107.6103957,-1,0,0,0,20.50836182,2914,60.00999832,36.86000061,931.7999878,0.196180785,250.4979704,251,0,0,0,352.5,0.036277898,,17.5,6.287698,0,6.755797299
103,1.70E+18,-0.115999997,0.0153,-0.006,1.389999986,9.199999809,30.60000038,0.869509001,0.007172576,0.937236758,5.980529128,90.11621612,-0.706139786,-6.886680054,107.6103798,-1,0,0,0,20.51625061,2834,60.04999924,36.84000015,932,0.117004655,250.4979704,251,0,0,0,370,0.036277898,,17.5,7.172576,0,5.980529128
104,1.70E+18,-0.148699999,0.0151,-0.0043,1.00999999,8.279999733,30.79999924,0.881782432,0.007631273,0.423074561,5.425440847,91.00532911,0.146575689,-6.886714401,107.610363,-1,0,0,0,20.5122509,2846,60.09000015,36.86000061,932.5,0.14946471,250.4979704,251,0,0,0,387.5,0.036277898,,17.5,7.631273,0,5.425440847
105,1.70E+18,-0.100400001,-0.0063,-0.0073,1.309999943,7.550000191,31.20000076,0.89712419,0.009719716,0.586138053,5.048390597,91.51961621,0.025183321,-6.886749885,107.610345,-1,0,0,0,20.52031136,2820,60.09000015,36.84000015,932.7000122,0.100597466,250.4979704,251,0,0,0,405,0.036277898,,17.5,9.719716,0,5.048390597
106,1.70E+18,-0.1105,-0.004,0.0065,1.480000019,7.340000153,31.39999962,0.908374805,0.010368209,0.351504719,4.736373237,91.72090831,-0.26312046,-6.886786166,107.6103259,-1,0,0,0,20.53223228,2840,60.06999969,36.86999893,933.0999756,0.110572375,250.4979704,251,0,0,0,422.5,0.036277898,,17.5,10.368209,0,4.736373237
107,1.70E+18,-0.192699999,-0.0295,-0.0121,1.00999999,6.789999962,31.29999924,0.933944423,0.015246368,-0.063002075,4.310443997,91.51108781,-0.168678968,-6.886822974,107.6103055,-1,0,0,0,20.52033997,2894,60.09000015,36.84000015,933.5,0.194944965,250.4979704,251,0,0,0,440,0.036277898,,17.5,15.246368,0,4.310443997
108,1.70E+18,-0.066599995,-0.0056,0.0133,0.920000017,6.380000114,31.29999924,0.955422897,0.016145498,0.031290839,3.640959502,91.11075189,0.318639731,-6.88685996,107.6102837,-1,0,0,0,20.52429008,2866,60.08000183,36.86999893,934,0.066835016,250.4979704,251,0,0,0,457.5,0.036277898,,17.5,16.145498,0,3.640959502
109,1.70E+18,-0.105699994,0.011100001,0.021799998,1.320000052,5.460000038,31.60000038,0.983038087,0.017900741,-0.081588157,2.752682135,90.70520872,-0.540885707,-6.88689692,107.6102607,-1,0,0,0,20.52018166,2786,60.11000061,36.86000061,934.2999878,0.106281224,250.4979704,251,0,0,0,477.5,0.036277898,,20,17.900741,0,2.752682135
110,1.70E+18,-0.093699999,-0.0115,0.034000002,0.899999976,4.639999866,31.60000038,1.018835564,0.02285341,-0.529982879,1.557632557,90.29089114,-0.305546611,-6.886933717,107.6102365,-1,0,0,0,20.52819061,2774,60.11999893,36.86000061,934.5999756,0.094403071,250.4979704,251,0,0,0,492.5,0.036277898,,15,22.85341,0,1.557632557
111,1.70E+18,-0.085599996,0.012,0.038799997,1.25999999,3.329999924,32,1.062815298,0.028637735,-0.524820855,0.128804306,89.85655779,0.034565537,-6.886970275,107.610211,-1,0,0,0,20.52818108,2780,60.15999985,36.86999893,934.7000122,0.086437025,250.4979704,251,0,0,0,505,0.036277898,,12.5,28.637735,0,0.128804306
112,1.70E+18,-0.071099997,0.021799998,0.060800001,1.200000048,1.840000033,32.40000153,1.106795032,0.030502941,-0.565894583,-1.545065682,89.37477838,-0.225294346,-6.887006412,107.6101845,-1,0,0,0,20.51624107,2806,60.16999817,36.86000061,935,0.074366992,250.4979704,251,0,0,0,517.5,0.036277898,,12.5,30.502941,0,-1.545065682
113,1.70E+18,-0.079400003,-0.0055,0.059999999,1.24000001,0.289999992,32.79999924,1.163048197,0.035386998,-0.804593567,-3.251426515,88.9940072,-0.280931284,-6.887042077,107.610157,-1,0,0,0,20.51618195,2840,60.11999893,36.88000107,935.0999756,0.079590266,250.4979704,251,0,0,0,532.5,0.036277898,,15,35.386998,0,-3.251426515
114,1.70E+18,-0.086099997,0.029100001,0.062600002,1.00999999,-1.440000057,33.29999924,1.221346904,0.041128967,-0.793141325,-4.933504067,88.82427292,0.035795838,-6.887077287,107.6101284,-1,0,0,0,20.52825928,2840,60.15999985,36.86999893,935.2999878,0.09088465,250.4979704,251,0,0,0,547.5,0.036277898,,15,41.128967,0,-4.933504067
115,1.70E+18,-0.065099999,0.059,0.061900001,1.120000005,-3.049999952,34.09999847,1.27248614,0.042046744,-0.785716774,-6.74008673,89.03012989,-0.117050475,-6.88711198,107.6100992,-1,0,0,0,20.52818108,2900,60.16999817,36.88000107,935.7999878,0.087857896,250.4979704,251,0,0,0,562.5,0.036277898,,15,42.046744,0,-6.74008673
116,1.70E+18,0.0211,-0.119400002,0.0502,1.409999967,-5.070000172,35.20000076,1.34612662,0.046803832,-0.229033289,-8.536969875,89.56137129,0.651104103,-6.887146173,107.6100698,-1,0,0,0,20.5243206,2886,60.18999863,36.86999893,936.0999756,0.121250033,250.4979704,251,0,0,0,577.5,0.036277898,,15,46.803832,0,-8.536969875
117,1.70E+18,0.023799999,0.0678,0.079000004,1.549999952,-6.539999962,36.40000153,1.408516486,0.054859325,-0.366571404,-9.73212719,90.29265422,-0.418315802,-6.887179875,107.6100394,-1,0,0,0,20.51642036,2906,60.20000076,36.88000107,936.7000122,0.071855967,250.4979704,251,0,0,0,592.5,0.036277898,,15,54.859325,0,-9.73212719
118,1.70E+18,0.075300001,0.027799999,0.054200001,1.399999976,-7.510000229,37,1.477043048,0.057627417,-0.803053379,-10.40551626,91.04611236,0.016341321,-6.887213084,107.6100079,-1,0,0,0,20.52429008,2846,60.20000076,36.88000107,936.7999878,0.080267864,250.4979704,251,0,0,0,607.5,0.036277898,,15,57.627417,0,-10.40551626
119,1.70E+18,0.050299998,-0.0092,0.054400001,1.289999962,-8.420000076,37.59999847,1.543524046,0.061232764,-0.719243637,-10.77063239,91.61413247,-0.03268733,-6.887245736,107.6099755,-1,0,0,0,20.52829933,2860,60.20999908,36.86999893,937,0.051134429,250.4979704,251,0,0,0,622.5,0.036277898,,15,61.232764,0,-10.77063239
120,1.70E+18,0.051799998,0.035400003,0.061299998,1.25,-8.449999809,37.70000076,1.600799982,0.059662186,-0.86472171,-10.90981598,91.58646301,-0.391537436,-6.887277954,107.609942,-1,0,0,0,20.51234055,2894,60.20000076,36.88000107,937.2000122,0.062740736,250.4979704,251,0,0,0,637.5,0.036277898,,15,59.662186,0,-10.90981598
121,1.70E+18,0.052700002,0.0089,0.053099997,0.819999993,-8.659999847,37.5,1.669326548,0.061786577,-1.053020631,-11.02748551,91.29942906,-0.152397561,-6.887309749,107.6099076,-1,0,0,0,20.51639175,2874,60.18999863,36.86999893,937.5,0.053446236,250.4979704,251,0,0,0,645,0.036277898,,7.5,61.786577,0,-11.02748551
122,1.70E+18,0.053799998,-0.0003,0.053400002,0.879999995,-8.539999962,88.30000305,1.734784756,0.065964743,-0.877957056,-11.15032385,90.78432876,-0.020212457,-6.887341062,107.6098723,-1,0,0,0,20.62989998,1300,60.22000122,36.90000153,937.4000244,0.053800834,250.4979704,251,0,0,0,645,0.036277898,,0,65.964743,0,-11.15032385
123,1.70E+18,0.044599999,0.0276,0.0603,1.090000033,-8.569999695,87.90000153,1.802288551,0.067643248,-0.693884429,-11.18525493,90.25498712,-0.063558944,-6.887371971,107.6098364,-1,0,0,0,20.63006973,1246,60.22000122,36.88000107,937.5999756,0.052449212,250.4979704,251,0,0,0,645,0.036277898,,0,67.643248,0,-11.18525493
124,1.70E+18,0.041000001,0.084300004,0.082400002,1.200000048,-8.539999962,87.30000305,1.866723974,0.065258786,-0.542414203,-11.11593434,89.56843045,-0.263946611,-6.887402545,107.6097998,-1,0,0,0,20.62615013,1394,60.24000168,36.90999985,937.2999878,0.093741617,250.4979704,251,0,0,0,645,0.036277898,,0,65.258786,0,-11.11593434
125,1.70E+18,0.073100001,-0.082900003,0.0471,1.220000029,-8.369999886,86.59999847,1.945478369,0.073089965,-0.534740757,-10.97831225,88.98080458,-0.017956651,-6.887431331,107.6097644,-1,0,0,0,20.63793182,1266,60.22999954,36.90999985,937.4000244,0.110526108,250.4979704,251,0,0,0,645,0.036277898,,0,73.089965,0,-10.97831225
126,1.70E+18,0.071400002,0.056499999,0.0403,1.200000048,-8.31000042,85.90000153,2.010936577,0.073439293,-0.135517369,-10.81100904,88.54319791,0.272286205,-6.887462805,107.6097248,-1,0,0,0,20.61017227,1520,60.22000122,36.93999863,937.4000244,0.091050591,250.4979704,251,0,0,0,645,0.036277898,,0,73.439293,0,-10.81100904
127,1.70E+18,0.083900005,0.0148,0.057700001,1.659999967,-8.119999886,85.69999695,2.075372834,0.065950893,0.159083584,-10.74588688,88.37768682,0.057603055,-6.887492535,107.6096865,-1,0,0,0,20.63404274,1340,60.20999908,36.90999985,936.9000244,0.085195368,250.4979704,251,0,0,0,645,0.036277898,,0,65.950893,0,-10.74588688
128,1.70E+18,0.079300001,-0.0306,0.0449,1.779999971,-8.039999962,85.59999847,2.15514924,0.074434198,0.151591524,-10.76907859,88.50870163,-0.035129404,-6.887522114,107.6096476,-1,0,0,0,20.63402176,1446,60.20000076,36.91999817,937.2999878,0.084999119,250.4979704,251,0,0,0,645,0.036277898,,0,74.434198,0,-10.76907859
129,1.70E+18,0.057099998,-0.240800008,0.056400001,1.75999999,-8.06000042,85.5,2.221630235,0.067896031,0.177881844,-10.8553304,88.71942417,-0.087714775,-6.887551534,107.6096083,-1,0,0,0,20.62994003,1366,60.15999985,36.93999863,937,0.24747738,250.4979704,251,0,0,0,645,0.036277898,,0,67.896031,0,-10.8553304
130,1.70E+18,0.083800003,-0.047400001,0.065899998,1.799999952,-8.130000114,85.69999695,2.291179557,0.067020535,0.080824143,-11.01455453,88.99226462,-0.17708902,-6.887580869,107.6095686,-1,0,0,0,20.63791084,1274,60.15999985,36.95000076,937.0999756,0.096276688,250.4979704,251,0,0,0,645,0.036277898,,0,67.020535,0,-11.01455453
131,1.70E+18,0.083800003,-0.047400001,0.065899998,1.799999952,-8.130000114,85.69999695,2.366866429,0.071359441,-0.086207921,-11.15211854,89.28627573,-0.145761683,-6.887610149,107.6095283,-1,0,0,0,20.62989044,1306,60.15999985,36.93999863,937.2000122,0.096276688,250.4979704,251,0,0,0,645,0.036277898,,0,71.359441,0,-11.15211854
132,1.70E+18,0.065400004,-0.039000001,0.065400004,1.49000001,-8.520000458,85.90000153,2.442550857,0.070433579,-0.039749431,-11.28250721,89.50528066,-0.007390586,-6.887639435,107.6094876,-1,0,0,0,20.64985085,1226,60.18000031,36.93999863,937.0999756,0.076145654,250.4979704,251,0,0,0,645,0.036277898,,0,70.433579,0,-11.28250721
133,1.70E+18,0.100400001,0.0013,0.069699995,1.539999962,-8.579999924,86,2.514145811,0.074647583,-0.092998777,-11.34267582,89.77648103,-0.208041907,-6.887668676,107.6094464,-1,0,0,0,20.64589119,1234,60.15999985,36.93999863,937.0999756,0.100408417,250.4979704,251,0,0,0,645,0.036277898,,0,74.647583,0,-11.34267582
134,1.70E+18,0.065800004,-0.114599995,0.081199996,1.519999981,-8.590000153,86.09999847,2.583695908,0.070326313,-0.273164543,-11.33243559,89.92702642,-0.245825551,-6.887697922,107.6094047,-1,0,0,0,20.64582062,1234,60.15999985,36.93999863,937.2000122,0.132146886,250.4979704,251,0,0,0,645,0.036277898,,0,70.326313,0,-11.33243559
135,1.70E+18,0.080199994,0.046,0.0528,1.340000033,-8.600000381,86.09999847,2.653246064,0.070127115,-0.472406198,-11.19409511,89.99655201,-0.262092769,-6.887727205,107.6093624,-1,0,0,0,20.63788223,1226,60.09999847,36.95000076,937.2000122,0.092455606,250.4979704,251,0,0,0,645,0.036277898,,0,70.127115,0,-11.19409511
136,1.70E+18,0.070300005,0.0028,0.0623,1.149999976,-8.380000114,86,2.724841018,0.072020859,-0.571266315,-10.97241822,89.99965449,-0.070873583,-6.887756452,107.6093198,-1,0,0,0,20.6458416,1206,60.11000061,36.97000122,937.2000122,0.070355744,250.4979704,251,0,0,0,645,0.036277898,,0,72.020859,0,-10.97241822
137,1.70E+18,0.082900003,-0.0055,0.059500001,1.00999999,-8.180000305,85.80000305,2.794389625,0.072578706,-0.491603906,-10.72428058,89.86975357,0.061790169,-6.88778568,107.6092767,-1,0,0,0,20.64585114,1246,60.13999939,36.95000076,937.2000122,0.083082251,250.4979704,251,0,0,0,645,0.036277898,,0,72.578706,0,-10.72428058
138,1.70E+18,0.083300002,0.082699999,0.076699995,1.129999995,-7.920000076,85.5,2.872120399,0.075703949,-0.397419904,-10.50275317,89.65301741,0.01971298,-6.887814935,107.6092331,-1,0,0,0,20.64588165,1240,60.15000153,36.97000122,937.2000122,0.117380493,250.4979704,251,0,0,0,645,0.036277898,,0,75.703949,0,-10.50275317
139,1.70E+18,0.078900002,-0.0063,0.057599999,1.210000038,-7.699999809,85.09999847,2.936556597,0.069888845,-0.286443906,-10.37130614,89.33450082,0.039416247,-6.887844238,107.6091891,-1,0,0,0,20.62581062,2580,60.11999893,36.97000122,937.0999756,0.079151123,250.4979704,251,0,0,0,645,0.036277898,,0,69.888845,0,-10.37130614
140,1.70E+18,0.095300004,0.0059,0.060900003,1.25999999,-7.610000134,84.59999847,3.014288206,0.072049417,-0.201641296,-10.28857366,89.03387474,-0.041544423,-6.887872045,107.609147,-1,0,0,0,20.6498909,1246,60.06999969,36.95000076,937.0999756,0.095482463,250.4979704,251,0,0,0,645,0.036277898,,0,72.049417,0,-10.28857366
141,1.70E+18,0.087199993,-0.0048,0.0614,1.309999943,-7.480000019,84,3.089974303,0.077068433,-0.200649215,-10.294958,88.8758465,-0.084166794,-6.887902742,107.6091,-1,0,0,0,20.64986992,1234,60.09999847,36.95000076,937.2000122,0.087332004,250.4979704,251,0,0,0,645,0.036277898,,0,77.068433,0,-10.294958
142,1.70E+18,0.087400004,-0.017200001,0.065800004,1.350000024,-7.510000229,83.59999847,3.169752259,0.077581763,-0.159512596,-10.32763824,88.84656429,0.06961912,-6.887931986,107.6090547,-1,0,0,0,20.64990044,1226,60.13999939,36.97000122,937.2000122,0.089076376,250.4979704,251,0,0,0,645,0.036277898,,0,77.581763,0,-10.32763824
143,1.70E+18,0.092800006,0.0025,0.067099996,1.399999976,-7.480000019,83.40000153,3.244414825,0.076550089,-0.197114601,-10.39784976,88.93482776,-0.104697498,-6.887961198,107.6090092,-1,0,0,0,20.63787079,1266,60.09999847,36.97999954,937.2999878,0.092833675,250.4979704,251,0,0,0,645,0.036277898,,0,76.550089,0,-10.39784976
144,1.70E+18,0.082599998,-0.0036,0.068900004,1.389999986,-7.619999886,83.19999695,3.321123619,0.074937105,-0.252042307,-10.50181269,89.0132166,0.040143981,-6.887990436,107.6089633,-1,0,0,0,20.64984131,1234,60.09999847,36.97000122,937,0.082678411,250.4979704,251,0,0,0,645,0.036277898,,0,74.937105,0,-10.50181269
145,1.70E+18,0.085699998,-0.0009,0.0682,1.320000052,-7.769999981,83,3.397832413,0.076558895,-0.228762879,-10.61909698,89.04691335,-0.147508936,-6.888019693,107.608917,-1,0,0,0,20.64593124,1240,60.06000137,36.97999954,937.2999878,0.085704723,250.4979704,251,0,0,0,645,0.036277898,,0,76.558895,0,-10.61909698
146,1.70E+18,0.078199998,0.0013,0.063900001,1.379999995,-7.769999981,150.6000061,3.476587672,0.076821983,-0.386592674,-10.71649875,89.04741904,-0.259917799,-6.888048949,107.6088704,-1,0,0,0,20.5519104,2626,60.04000092,36.97999954,937.0999756,0.078210802,250.4979704,251,0,0,0,642.5,0.036277898,,-2.5,76.821983,0,-10.71649875
147,1.70E+18,0.086999997,-0.0017,0.064800002,1.190000057,-7.840000153,150.1000061,3.554318447,0.077259369,-0.339843597,-10.79714355,88.95416017,0.16966555,-6.888078205,107.6088236,-1,0,0,0,20.52818108,2720,60.06999969,36.97999954,937.0999756,0.087016605,250.4979704,251,0,0,0,637.5,0.036277898,,-5,77.259369,0,-10.79714355
148,1.70E+18,0.085000001,-0.0072,0.065099999,1.269999981,-7.940000057,150.3000031,3.630005379,0.077719606,-0.115026219,-10.82995021,88.87548431,0.117936194,-6.888107454,107.6087764,-1,0,0,0,20.52800941,2640,60.04999924,36.97999954,937,0.085304397,250.4979704,251,0,0,0,625,0.036277898,,-12.5,77.719606,0,-10.82995021
149,1.70E+18,0.086800002,0.0032,0.067599997,1.5,-7.949999809,79.19999695,3.70364501,0.074597903,-0.052624621,-10.81831336,88.74645127,0.001977394,-6.88813673,107.6087289,-1,0,0,0,20.64188194,1280,60.04999924,36.97000122,936.5999756,0.086858968,250.4979704,251,0,0,0,620,0.036277898,,-5,74.597903,0,-10.81831336
150,1.70E+18,0.089400001,-0.0056,0.061999999,1.49000001,-8.050000191,150.3999939,3.783422966,0.075698376,-0.009367588,-10.70952415,88.67837441,0.033300047,-6.888165963,107.6086811,-1,0,0,0,20.52031136,2894,60.06999969,36.97999954,936.7000122,0.089575221,250.4979704,251,0,0,0,602.5,0.036277898,,-17.5,75.698376,0,-10.70952415
151,1.70E+18,0.068599999,-0.0149,0.063699998,1.600000024,-7.800000191,150.8999939,3.847857733,0.073454119,0.035914743,-10.48681709,88.73391835,0.018314387,-6.888195143,107.6086331,-1,0,0,0,20.52436066,2854,60.04999924,37.00999832,936,0.0701995,250.4979704,251,0,0,0,585,0.036277898,,-17.5,73.454119,0,-10.48681709
152,1.70E+18,0.084600002,-0.0072,0.056000002,1.899999976,-7.550000191,151.6000061,3.918429871,0.070320189,0.052163857,-10.13344802,88.86042978,-0.003409543,-6.888224264,107.6085848,-1,0,0,0,20.52441025,2906,59.97999954,36.99000168,935.9000244,0.084905832,250.4979704,251,0,0,0,567.5,0.036277898,,-17.5,70.320189,0,-10.13344802
153,1.70E+18,0.079700001,-0.0044,0.0515,1.74000001,-7.25,151.8000031,3.981841583,0.070130162,0.024791157,-9.60912826,89.06342345,0.040559639,-6.888253483,107.608536,-1,0,0,0,20.51638031,2860,60,36.97999954,935.4000244,0.079821364,250.4979704,251,0,0,0,550,0.036277898,,-17.5,70.130162,0,-9.60912826
154,1.70E+18,0.0757,0.011100001,0.043299999,1.789999962,-6.710000038,152.3000031,4.037072916,0.064730443,0.069157261,-8.856981328,89.22514187,-0.018171195,-6.888282738,107.6084869,-1,0,0,0,20.51234055,2920,60,36.99000168,935.2000122,0.076509477,250.4979704,251,0,0,0,532.5,0.036277898,,-17.5,64.730443,0,-8.856981328
155,1.70E+18,0.078500003,-0.0087,0.040900003,1.690000057,-6.139999866,152.5,4.082075377,0.056425896,-0.045592662,-7.883099424,89.40188748,-0.095558187,-6.888311996,107.6084374,-1,0,0,0,20.51633072,2866,59.97000122,37.00999832,934.9000244,0.078980633,250.4979704,251,0,0,0,515,0.036277898,,-17.5,56.425896,0,-7.883099424
156,1.70E+18,0.074099995,0.0019,0.034599997,1.460000038,-5.010000229,153,4.13014533,0.058334503,-0.122871787,-6.701886606,89.69192824,0.18658928,-6.888341341,107.6083875,-1,0,0,0,20.51631165,2900,59.95999908,36.99000168,934.9000244,0.07412435,250.4979704,251,0,0,0,497.5,0.036277898,,-17.5,58.334503,0,-6.701886606
157,1.70E+18,0.074500002,0.0024,0.030200001,1.379999995,-3.910000086,153.6000061,4.170034904,0.05435339,0.143435652,-5.401815199,90.01851537,0.257395567,-6.888370782,107.6083371,-1,0,0,0,20.5163517,2894,59.95000076,37.02000046,934.2000122,0.07453865,250.4979704,251,0,0,0,480,0.036277898,,-17.5,54.35339,0,-5.401815199
158,1.70E+18,0.070500001,0.0011,0.025600001,1.440000057,-2.660000086,79.59999847,4.204809446,0.048777182,0.206642382,-4.060336976,90.43629762,-0.120735589,-6.888400367,107.6082862,-1,0,0,0,20.63388252,1266,59.90999985,36.97999954,934.2999878,0.070508582,250.4979704,251,0,0,0,475,0.036277898,,-5,48.777182,0,-4.060336976
159,1.70E+18,0.069699995,0.0099,0.025899999,1.559999943,-1.480000019,155,4.23651578,0.044716265,0.071706307,-2.770513913,90.91001331,-0.107018325,-6.888430094,107.6082347,-1,0,0,0,20.51239204,2914,59.93000031,37.02000046,934,0.070399569,250.4979704,251,0,0,0,460,0.036277898,,-15,44.716265,0,-2.770513913
160,1.70E+18,0.069499999,0.0254,0.0208,1.429999948,0.100000001,155.6999969,4.269245644,0.043229248,0.011712468,-1.545234174,91.248245,-0.105478524,-6.888459979,107.6081828,-1,0,0,0,20.52425957,2894,59.88999939,37.00999832,933.5999756,0.073996013,250.4979704,251,0,0,0,450,0.036277898,,-10,43.229248,0,-1.545234174
161,1.70E+18,0.062899999,0.0093,0.022299999,1.279999971,1.220000029,146.5,4.290723343,0.035834257,-0.062643421,-0.395986705,91.40850784,0.070266082,-6.888490065,107.6081304,-1,0,0,0,20.5198307,2934,59.88999939,37.02000046,933.2000122,0.063583802,250.4979704,251,0,0,0,437.5,0.036277898,,-12.5,35.834257,0,-0.395986705
162,1.70E+18,-0.0001,0.0052,0.034900002,1.149999976,2.380000114,83.90000153,4.31629302,0.035798945,0.048301621,0.614617358,91.40195437,0.172127373,-6.888518877,107.6080801,-1,0,0,0,20.64591026,1254,59.88999939,37.02000046,933.5,0.005200961,250.4979704,251,0,0,0,435,0.036277898,,-2.5,35.798945,0,0.614617358
163,1.70E+18,0.051799998,0.0141,0.0231,1.269999981,3.470000029,156.8000031,4.343908091,0.034691323,0.147439879,1.405024367,91.26785075,0.070294037,-6.88855091,107.6080242,-1,0,0,0,20.50835228,2980,59.91999817,37.00999832,933.4000244,0.053684726,250.4979704,251,0,0,0,425,0.036277898,,-10,34.691323,0,1.405024367
164,1.70E+18,0.0502,0.016100001,0.025700001,1.320000052,4.21999979,137.1999969,4.366410275,0.028325897,0.185048571,1.926115862,91.09813696,0.039444582,-6.888581633,107.6079704,-1,0,0,0,20.54374123,2426,59.88999939,37.00999832,932.7000122,0.052718593,250.4979704,251,0,0,0,412.5,0.036277898,,-12.5,28.325897,0,1.926115862
165,1.70E+18,0.042300001,0.0244,0.0261,1.190000057,4.789999962,91.40000153,4.388910789,0.026321609,0.211004616,2.230666388,90.92845735,0.017752858,-6.888610984,107.607919,-1,0,0,0,20.63788223,1220,59.86999893,37.04000092,932.7999878,0.048832879,250.4979704,251,0,0,0,410,0.036277898,,-2.5,26.321609,0,2.230666388
166,1.70E+18,0.043499999,0.0208,0.027299998,1.409999967,5.25,122.1999969,4.417549391,0.026677534,0.214606565,2.374854769,90.75438369,0.064113191,-6.888643575,107.6078619,-1,0,0,0,20.52433968,2894,59.88000107,37.02000046,932.9000244,0.048217112,250.4979704,251,0,0,0,400,0.036277898,,-10,26.677534,0,2.374854769
167,1.70E+18,0.041900001,0.0207,0.026000001,1.379999995,5.260000229,110.3000031,4.441072721,0.024935432,0.233825975,2.414632612,90.59755817,0.090509779,-6.888674848,107.6078071,-1,0,0,0,20.53993034,2546,59.88999939,37.02000046,932.2999878,0.046734357,250.4979704,251,0,0,0,390,0.036277898,,-10,24.935432,0,2.414632612
168,1.70E+18,0.038599998,0.030999999,0.023399999,1.419999957,5.579999924,157.3000031,4.46152832,0.022425713,0.307096916,2.470401418,90.38937092,0.098119867,-6.88870631,107.6077521,-1,0,0,0,20.64986038,1234,59.86000061,37.00999832,932.5,0.049507169,250.4979704,251,0,0,0,385,0.036277898,,-5,22.425713,0,2.470401418
169,1.70E+18,0.034299999,0.022299999,0.023,1.50999999,5.690000057,101,4.48300602,0.021693897,0.358180531,2.574059187,90.14566917,0.102259312,-6.888737934,107.6076969,-1,0,0,0,20.53240204,2866,59.88999939,37.00999832,932.2999878,0.040911856,250.4979704,251,0,0,0,377.5,0.036277898,,-7.5,21.693897,0,2.574059187
170,1.70E+18,0.036699999,0.0199,0.0195,1.590000033,5.809999943,135.3000031,4.501416941,0.021801541,0.396964825,2.780664024,89.88724089,0.041628088,-6.888769725,107.6076414,-1,0,0,0,20.53586197,2766,59.86999893,37.00999832,932.4000244,0.041748053,250.4979704,251,0,0,0,367.5,0.036277898,,-10,21.801541,0,2.780664024
171,1.70E+18,0.036200002,0.023799999,0.0152,1.480000019,6.170000076,157.3000031,4.512667675,0.017878741,0.363642116,3.104647325,89.52074522,-0.014755425,-6.888801732,107.6075858,-1,0,0,0,20.63385201,1280,59.84999847,37.02000046,932,0.043322974,250.4979704,251,0,0,0,365,0.036277898,,-2.5,17.878741,0,3.104647325
172,1.70E+18,0.032200001,0.0219,0.012,1.529999971,6.679999828,88.80000305,4.532100458,0.01672828,0.332932371,3.535778042,89.16265494,0.090303094,-6.888833793,107.60753,-1,0,0,0,20.52429008,2934,59.88000107,37.00999832,931.7000122,0.038941624,250.4979704,251,0,0,0,355,0.036277898,,-10,16.72828,0,3.535778042
173,1.70E+18,0.031600002,0.0219,0.0077,1.450000048,7.369999886,142.3999939,4.540283699,0.018120699,0.417705791,4.101097584,88.91455915,0.102355737,-6.888865976,107.6074742,-1,0,0,0,20.52828979,2646,59.84999847,36.99000168,931.5999756,0.038446978,250.4979704,251,0,0,0,342.5,0.036277898,,-12.5,18.120699,0,4.101097584
174,1.70E+18,0.0307,0.02,0.0056,1.610000014,7.900000095,157.8000031,4.550511379,0.014524678,0.479253252,4.768990692,88.77975166,0.037558677,-6.888898314,107.6074182,-1,0,0,0,20.64583015,1254,59.86000061,37.00999832,931.2999878,0.036640005,250.4979704,251,0,0,0,340,0.036277898,,-2.5,14.524678,0,4.768990692
175,1.70E+18,0.029999999,0.021600001,0.003,1.620000005,8.550000191,83,4.549487133,0.010674247,0.493642898,5.501955558,88.7542963,0.031263494,-6.888930701,107.6073622,-1,0,0,0,20.52041054,2906,59.91999817,36.99000168,931.2999878,0.036967012,250.4979704,251,0,0,0,330,0.036277898,,-10,10.674247,0,5.501955558
176,1.70E+18,0.028000001,0.020299999,0.0005,1.75,9.31000042,155.3000031,4.549487133,0.007591556,0.48767573,6.276756478,88.82202464,-0.021702342,-6.888963208,107.6073062,-1,0,0,0,20.5402317,2674,59.86000061,36.99000168,931.4000244,0.034584534,250.4979704,251,0,0,0,317.5,0.036277898,,-12.5,7.591556,0,6.276756478
177,1.70E+18,0.023399999,0.026000001,-0.002,1.429999948,10.27000046,155.6000061,4.554600973,0.009286317,0.476866385,7.054314777,88.91690309,-0.032019684,-6.888995852,107.6072501,-1,0,0,0,20.64988136,1214,59.86999893,37.00999832,931.5999756,0.034979422,250.4979704,251,0,0,0,315,0.036277898,,-2.5,9.286317,0,7.054314777
178,1.70E+18,0.024799999,0.023200002,-0.0039,1.570000052,11.06000042,158.1999969,4.552556295,0.00813751,0.461409568,7.796292377,89.00315746,-0.026807769,-6.889028689,107.607194,-1,0,0,0,20.65386009,1220,59.88000107,37.00999832,930.9000244,0.033959977,250.4979704,251,0,0,0,310,0.036277898,,-5,8.13751,0,7.796292377
179,1.70E+18,0.023499999,0.016899999,-0.0037,1.440000057,11.56000042,158.6000061,4.541305561,-0.00099827,0.433725557,8.439016285,89.10406319,-0.10355138,-6.889061603,107.6071378,-1,0,0,0,20.63781166,1214,59.86999893,36.99000168,931,0.02894581,250.4979704,251,0,0,0,307.5,0.036277898,,-2.5,-0.99827,0,8.439016285
180,1.70E+18,0.023499999,0.016899999,-0.0037,1.440000057,11.56000042,158.6000061,4.541305561,-0.000530719,0.406306964,8.964127891,89.14650701,-0.007251935,-6.889094644,107.6070817,-1,0,0,0,20.64982986,1206,59.88000107,36.99000168,931.2000122,0.02894581,250.4979704,251,0,0,0,305,0.036277898,,-2.5,-0.530719,0,8.964127891
181,1.70E+18,0.029999999,0.022200001,-0.0022,1.610000014,12.56000042,82.69999695,4.537214537,0.001875752,0.436283666,9.332464379,89.14460042,0.036726009,-6.88912781,107.6070255,-1,0,0,0,20.53220177,2794,59.86000061,37.00999832,930.5999756,0.037320772,250.4979704,251,0,0,0,302.5,0.036277898,,-2.5,1.875752,0,9.332464379
182,1.70E+18,0.023,0.0188,-0.0016,1.519999981,12.76000023,83.19999695,4.532100458,-0.002402749,0.444882271,9.532826247,89.16757517,-0.094469194,-6.889161042,107.6069693,-1,0,0,0,20.56362152,2574,59.88999939,36.97999954,930.5999756,0.029705892,250.4979704,251,0,0,0,297.5,0.036277898,,-5,-2.402749,0,9.532826247
183,1.70E+18,0.0255,0.0196,0.0004,1.460000038,12.89000034,83.69999695,4.529031296,-0.002643795,0.426453188,9.590012822,89.15447505,-0.015534945,-6.88919437,107.6069132,-1,0,0,0,20.64178085,1206,59.90000153,37.00999832,930.5999756,0.032162245,250.4979704,251,0,0,0,297.5,0.036277898,,0,-2.643795,0,9.590012822
184,1.70E+18,0.023799999,0.017999999,0.0009,1.5,12.78999996,84,4.52494194,-0.003586973,0.414386905,9.522445073,89.14783958,-0.01031741,-6.889227785,107.6068572,-1,0,0,0,20.6457901,1246,59.88999939,36.99000168,930.7000122,0.02984024,250.4979704,251,0,0,0,297.5,0.036277898,,0,-3.586973,0,9.522445073
185,1.70E+18,0.0206,0.020299999,0.0012,1.460000038,12.71000004,84.40000153,4.520849962,-0.005060936,0.355930498,9.35704076,89.13150714,-0.101789445,-6.889261286,107.6068011,-1,0,0,0,20.65380096,1226,59.88999939,37.00999832,930.5,0.028921445,250.4979704,251,0,0,0,297.5,0.036277898,,0,-5.060936,0,9.35704076
186,1.70E+18,0.025,0.020399999,0.0017,1.440000057,12.43999958,84.80000305,4.518803616,-0.004915327,0.27633776,9.134620713,89.15049787,-0.117575852,-6.889294731,107.6067451,-1,0,0,0,20.64981079,1234,59.91999817,36.99000168,930.4000244,0.032267011,250.4979704,251,0,0,0,297.5,0.036277898,,0,-4.915327,0,9.134620713
